[
  {
    "id": 15800356,
    "name": "Villa Rundle",
    "description": "An interesting place of category: Nature Spot.",
    "latitude": 36.0433899,
    "longitude": 14.2432048,
    "image_urls": [],
    "category": "Nature Spot",
    "aiGeneratedDescription": null,
    "sources": "\"[]\"",
    "website": null
  },
  {
    "id": 15800376,
    "name": "Victoria (Ir-Rabat) Bus Terminal",
    "description": "Bus Terminal with 5 Bays",
    "latitude": 36.043168,
    "longitude": 14.2411952,
    "image_urls": [],
    "category": "Bus Terminus",
    "aiGeneratedDescription": null,
    "sources": "\"[]\"",
    "website": null
  },
  {
    "id": 23562779,
    "name": "Nature Spot Location",
    "description": "An interesting place of category: Nature Spot.",
    "latitude": 36.0538793,
    "longitude": 14.3074112,
    "image_urls": [],
    "category": "Nature Spot",
    "aiGeneratedDescription": null,
    "sources": "\"[]\"",
    "website": null
  },
  {
    "id": 23562800,
    "name": "Landscape Location",
    "description": "An interesting place of category: Landscape.",
    "latitude": 36.0596659,
    "longitude": 14.2931346,
    "image_urls": [],
    "category": "Landscape",
    "aiGeneratedDescription": null,
    "sources": "\"[]\"",
    "website": null
  },
  {
    "id": 23563123,
    "name": "Landscape Location",
    "description": "An interesting place of category: Landscape.",
    "latitude": 36.0682887,
    "longitude": 14.2679219,
    "image_urls": [],
    "category": "Landscape",
    "aiGeneratedDescription": null,
    "sources": "\"[]\"",
    "website": null
  },
  {
    "id": 23738627,
    "name": "Ħondoq ir-Rummien",
    "description": "Beach and coastline with salt pans and caves. Popular for snorlelling and diving.",
    "latitude": 36.0279462,
    "longitude": 14.3220821,
    "image_urls": [],
    "category": "Diving Site",
    "aiGeneratedDescription": null,
    "sources": "\"[]\"",
    "website": null
  },
  {
    "id": 23738672,
    "name": "Sopu Tower",
    "description": "An interesting place of category: Historical Building.",
    "latitude": 36.0554506,
    "longitude": 14.3091337,
    "image_urls": [],
    "category": "Historical Building",
    "aiGeneratedDescription": null,
    "sources": "\"[]\"",
    "website": null
  },
  {
    "id": 23862503,
    "name": "Ta' Kenuna Botanical Garden",
    "description": "An interesting place of category: Nature Spot.",
    "latitude": 36.0356696,
    "longitude": 14.2840774,
    "image_urls": [],
    "category": "Nature Spot",
    "aiGeneratedDescription": null,
    "sources": "\"[]\"",
    "website": null
  },
  {
    "id": 23863699,
    "name": "San Blas",
    "description": "An interesting place of category: Beach.",
    "latitude": 36.057052,
    "longitude": 14.3005057,
    "image_urls": [],
    "category": "Beach",
    "aiGeneratedDescription": null,
    "sources": "\"[]\"",
    "website": null
  },
  {
    "id": 23865440,
    "name": "Qbajjar Promenade",
    "description": "An interesting place of category: Nature Spot.",
    "latitude": 36.0762669,
    "longitude": 14.2558338,
    "image_urls": [],
    "category": "Nature Spot",
    "aiGeneratedDescription": null,
    "sources": "\"[]\"",
    "website": null
  },
  {
    "id": 24159893,
    "name": "Il-Ġebla tal-Fessej",
    "description": "An interesting place of category: Diving Site.",
    "latitude": 36.0151878,
    "longitude": 14.2761634,
    "image_urls": [
      "https://images.pexels.com/photos/3567189/pexels-photo-3567189.jpeg?auto=compress&cs=tinysrgb&h=650&w=940",
      "https://images.pexels.com/photos/68767/divers-underwater-ocean-swim-68767.jpeg?auto=compress&cs=tinysrgb&h=650&w=940",
      "https://images.pexels.com/photos/3266821/pexels-photo-3266821.jpeg?auto=compress&cs=tinysrgb&h=650&w=940",
      "https://images.pexels.com/photos/8849625/pexels-photo-8849625.jpeg?auto=compress&cs=tinysrgb&h=650&w=940",
      "https://images.pexels.com/photos/15763632/pexels-photo-15763632.jpeg?auto=compress&cs=tinysrgb&h=650&w=940"
    ],
    "category": "Diving",
    "aiGeneratedDescription": null,
    "sources": "\"[]\"",
    "website": null
  },
  {
    "id": 24167022,
    "name": "Gozo Aqueduct",
    "description": "An interesting place of category: Historical Building.",
    "latitude": 36.0488973,
    "longitude": 14.2278584,
    "image_urls": [],
    "category": "Historical Building",
    "aiGeneratedDescription": null,
    "sources": "\"[]\"",
    "website": null
  },
  {
    "id": 26557619,
    "name": "Xlendi",
    "description": "An interesting place of category: Beach.",
    "latitude": 36.030394,
    "longitude": 14.2168811,
    "image_urls": [],
    "category": "Beach",
    "aiGeneratedDescription": null,
    "sources": "\"[]\"",
    "website": null
  },
  {
    "id": 29322330,
    "name": "Żebbuġ Playing Field",
    "description": "An interesting place of category: Nature Spot.",
    "latitude": 36.0653753,
    "longitude": 14.2346668,
    "image_urls": [],
    "category": "Nature Spot",
    "aiGeneratedDescription": null,
    "sources": "\"[]\"",
    "website": null
  },
  {
    "id": 29459537,
    "name": "Il-Bandli Tal-Ħali",
    "description": "An interesting place of category: Nature Spot.",
    "latitude": 36.0469811,
    "longitude": 14.2922985,
    "image_urls": [],
    "category": "Nature Spot",
    "aiGeneratedDescription": null,
    "sources": "\"[]\"",
    "website": null
  },
  {
    "id": 29459542,
    "name": "Ġnien il-Kunsill Lokali",
    "description": "An interesting place of category: Nature Spot.",
    "latitude": 36.0366948,
    "longitude": 14.2910204,
    "image_urls": [],
    "category": "Nature Spot",
    "aiGeneratedDescription": null,
    "sources": "\"[]\"",
    "website": null
  },
  {
    "id": 29546605,
    "name": "Nature Spot Location",
    "description": "An interesting place of category: Nature Spot.",
    "latitude": 36.0663596,
    "longitude": 14.2556952,
    "image_urls": [],
    "category": "Nature Spot",
    "aiGeneratedDescription": null,
    "sources": "\"[]\"",
    "website": null
  },
  {
    "id": 29546606,
    "name": "Nature Spot Location",
    "description": "An interesting place of category: Nature Spot.",
    "latitude": 36.0659173,
    "longitude": 14.2565608,
    "image_urls": [],
    "category": "Nature Spot",
    "aiGeneratedDescription": null,
    "sources": "\"[]\"",
    "website": null
  },
  {
    "id": 29546608,
    "name": "It-Tempji tal-Ġgantija",
    "description": "An interesting place of category: Historical Building.",
    "latitude": 36.0472394,
    "longitude": 14.2690662,
    "image_urls": [],
    "category": "Historical Building",
    "aiGeneratedDescription": null,
    "sources": "\"[]\"",
    "website": null
  },
  {
    "id": 29551671,
    "name": "Nature Spot Location",
    "description": "An interesting place of category: Nature Spot.",
    "latitude": 36.0412881,
    "longitude": 14.2461515,
    "image_urls": [],
    "category": "Nature Spot",
    "aiGeneratedDescription": null,
    "sources": "\"[]\"",
    "website": null
  },
  {
    "id": 29565140,
    "name": "Historical Building Location",
    "description": "An interesting place of category: Historical Building.",
    "latitude": 36.0463278,
    "longitude": 14.2396485,
    "image_urls": [],
    "category": "Historical Building",
    "aiGeneratedDescription": null,
    "sources": "\"[]\"",
    "website": null
  },
  {
    "id": 29565149,
    "name": "Saint Mary's Cathedral",
    "description": "An interesting place of category: Historical Building.",
    "latitude": 36.0462158,
    "longitude": 14.2397948,
    "image_urls": [],
    "category": "Historical Building",
    "aiGeneratedDescription": null,
    "sources": "\"[]\"",
    "website": null
  },
  {
    "id": 29565218,
    "name": "Landscape Location",
    "description": "An interesting place of category: Landscape.",
    "latitude": 36.0226372,
    "longitude": 14.2249919,
    "image_urls": [],
    "category": "Landscape",
    "aiGeneratedDescription": null,
    "sources": "\"[]\"",
    "website": null
  },
  {
    "id": 29980272,
    "name": "Nature Spot Location",
    "description": "An interesting place of category: Nature Spot.",
    "latitude": 36.0377876,
    "longitude": 14.255934,
    "image_urls": [],
    "category": "Nature Spot",
    "aiGeneratedDescription": null,
    "sources": "\"[]\"",
    "website": null
  },
  {
    "id": 33780577,
    "name": "Landscape Location",
    "description": "An interesting place of category: Landscape.",
    "latitude": 36.0535233,
    "longitude": 14.1916694,
    "image_urls": [],
    "category": "Landscape",
    "aiGeneratedDescription": null,
    "sources": "\"[]\"",
    "website": null
  },
  {
    "id": 33780583,
    "name": "Landscape Location",
    "description": "An interesting place of category: Landscape.",
    "latitude": 36.0522543,
    "longitude": 14.1938391,
    "image_urls": [],
    "category": "Landscape",
    "aiGeneratedDescription": null,
    "sources": "\"[]\"",
    "website": null
  },
  {
    "id": 33780585,
    "name": "Landscape Location",
    "description": "An interesting place of category: Landscape.",
    "latitude": 36.0559946,
    "longitude": 14.1904144,
    "image_urls": [],
    "category": "Landscape",
    "aiGeneratedDescription": null,
    "sources": "\"[]\"",
    "website": null
  },
  {
    "id": 46932089,
    "name": "Batterija tal-Qolla l-Bajda",
    "description": "An interesting place of category: Historical Building.",
    "latitude": 36.0797713,
    "longitude": 14.2512748,
    "image_urls": [],
    "category": "Historical Building",
    "aiGeneratedDescription": null,
    "sources": "\"[]\"",
    "website": null
  },
  {
    "id": 112265687,
    "name": "The Duke Shopping Mall",
    "description": "An interesting place of category: Shopping.",
    "latitude": 36.0440119,
    "longitude": 14.2428269,
    "image_urls": [],
    "category": "Shopping",
    "aiGeneratedDescription": null,
    "sources": "\"[]\"",
    "website": null
  },
  {
    "id": 131244451,
    "name": "Nature Spot Location",
    "description": "An interesting place of category: Nature Spot.",
    "latitude": 36.0467488,
    "longitude": 14.2667497,
    "image_urls": [],
    "category": "Nature Spot",
    "aiGeneratedDescription": null,
    "sources": "\"[]\"",
    "website": null
  },
  {
    "id": 131247890,
    "name": "Landscape Location",
    "description": "An interesting place of category: Landscape.",
    "latitude": 36.0807116,
    "longitude": 14.2404325,
    "image_urls": [],
    "category": "Landscape",
    "aiGeneratedDescription": null,
    "sources": "\"[]\"",
    "website": null
  },
  {
    "id": 131247891,
    "name": "Landscape Location",
    "description": "An interesting place of category: Landscape.",
    "latitude": 36.0797757,
    "longitude": 14.2421713,
    "image_urls": [],
    "category": "Landscape",
    "aiGeneratedDescription": null,
    "sources": "\"[]\"",
    "website": null
  },
  {
    "id": 131247892,
    "name": "Landscape Location",
    "description": "An interesting place of category: Landscape.",
    "latitude": 36.0793379,
    "longitude": 14.2492989,
    "image_urls": [],
    "category": "Landscape",
    "aiGeneratedDescription": null,
    "sources": "\"[]\"",
    "website": null
  },
  {
    "id": 134876347,
    "name": "Public Toilet Location",
    "description": "An interesting place of category: Public Toilet.",
    "latitude": 36.0148767,
    "longitude": 14.3243345,
    "image_urls": [],
    "category": "Public Toilet",
    "aiGeneratedDescription": null,
    "sources": "\"[]\"",
    "website": null
  },
  {
    "id": 134876348,
    "name": "Beach Location",
    "description": "An interesting place of category: Beach.",
    "latitude": 36.0140535,
    "longitude": 14.324355,
    "image_urls": [],
    "category": "Beach",
    "aiGeneratedDescription": null,
    "sources": "\"[]\"",
    "website": null
  },
  {
    "id": 139266475,
    "name": "Landscape Location",
    "description": "An interesting place of category: Landscape.",
    "latitude": 36.0547909,
    "longitude": 14.3074363,
    "image_urls": [],
    "category": "Landscape",
    "aiGeneratedDescription": null,
    "sources": "\"[]\"",
    "website": null
  },
  {
    "id": 139735838,
    "name": "Beach Location",
    "description": "An interesting place of category: Beach.",
    "latitude": 36.0715855,
    "longitude": 14.2603636,
    "image_urls": [],
    "category": "Beach",
    "aiGeneratedDescription": null,
    "sources": "\"[]\"",
    "website": null
  },
  {
    "id": 140917137,
    "name": "Saint Anthony's Battery",
    "description": "Gun battery built 1731-1732 to guard the channel between Gozo and Comino.",
    "latitude": 36.0327168,
    "longitude": 14.3352008,
    "image_urls": [],
    "category": "Historical Building",
    "aiGeneratedDescription": null,
    "sources": "\"[]\"",
    "website": null
  },
  {
    "id": 140917153,
    "name": "Betleħem f'Għajnsielem",
    "description": "An interesting place of category: Nature Spot.",
    "latitude": 36.0255436,
    "longitude": 14.2912755,
    "image_urls": [],
    "category": "Nature Spot",
    "aiGeneratedDescription": null,
    "sources": "\"[]\"",
    "website": null
  },
  {
    "id": 140942598,
    "name": "Landscape Location",
    "description": "An interesting place of category: Landscape.",
    "latitude": 36.0488643,
    "longitude": 14.3099616,
    "image_urls": [],
    "category": "Landscape",
    "aiGeneratedDescription": null,
    "sources": "\"[]\"",
    "website": null
  },
  {
    "id": 140942601,
    "name": "Landscape Location",
    "description": "An interesting place of category: Landscape.",
    "latitude": 36.0559167,
    "longitude": 14.304868,
    "image_urls": [],
    "category": "Landscape",
    "aiGeneratedDescription": null,
    "sources": "\"[]\"",
    "website": null
  },
  {
    "id": 142770118,
    "name": "Historical Building Location",
    "description": "An interesting place of category: Historical Building.",
    "latitude": 36.0414968,
    "longitude": 14.2733421,
    "image_urls": [],
    "category": "Historical Building",
    "aiGeneratedDescription": null,
    "sources": "\"[]\"",
    "website": null
  },
  {
    "id": 143244175,
    "name": "Beach Location",
    "description": "An interesting place of category: Beach.",
    "latitude": 36.0280409,
    "longitude": 14.3240335,
    "image_urls": [],
    "category": "Beach",
    "aiGeneratedDescription": null,
    "sources": "\"[]\"",
    "website": null
  },
  {
    "id": 147701462,
    "name": "Beach Location",
    "description": "An interesting place of category: Beach.",
    "latitude": 36.0162193,
    "longitude": 14.3369041,
    "image_urls": [],
    "category": "Beach",
    "aiGeneratedDescription": null,
    "sources": "\"[]\"",
    "website": null
  },
  {
    "id": 157468862,
    "name": "Beach Location",
    "description": "An interesting place of category: Beach.",
    "latitude": 36.0131275,
    "longitude": 14.3224767,
    "image_urls": [],
    "category": "Beach",
    "aiGeneratedDescription": null,
    "sources": "\"[]\"",
    "website": null
  },
  {
    "id": 157513474,
    "name": "Arkadia Shopping Mall",
    "description": "An interesting place of category: Shopping.",
    "latitude": 36.0436079,
    "longitude": 14.2464828,
    "image_urls": [],
    "category": "Shopping",
    "aiGeneratedDescription": null,
    "sources": "\"[]\"",
    "website": null
  },
  {
    "id": 157532729,
    "name": "Shopping Location",
    "description": "An interesting place of category: Shopping.",
    "latitude": 36.0453122,
    "longitude": 14.2457748,
    "image_urls": [],
    "category": "Shopping",
    "aiGeneratedDescription": null,
    "sources": "\"[]\"",
    "website": null
  },
  {
    "id": 158646190,
    "name": "Fliego",
    "description": "An interesting place of category: Food & Drink.",
    "latitude": 36.0351856,
    "longitude": 14.2970563,
    "image_urls": [],
    "category": "Food & Drink",
    "aiGeneratedDescription": null,
    "sources": "\"[]\"",
    "website": null
  },
  {
    "id": 168806531,
    "name": "Cappl",
    "description": "An interesting place of category: Food & Drink.",
    "latitude": 36.0242812,
    "longitude": 14.2884491,
    "image_urls": [],
    "category": "Food & Drink",
    "aiGeneratedDescription": null,
    "sources": "\"[]\"",
    "website": null
  },
  {
    "id": 183451667,
    "name": "Mġarr ix-Xini Tower",
    "description": "Completed in 1661 at the end of Grand Master De Redin's reign as part of the system of towers constructed by the Knights of Malta for the defense of Malta and Gozo.",
    "latitude": 36.0171631,
    "longitude": 14.274399,
    "image_urls": [],
    "category": "Historical Building",
    "aiGeneratedDescription": null,
    "sources": "\"[]\"",
    "website": null
  },
  {
    "id": 212509155,
    "name": "Nature Spot Location",
    "description": "An interesting place of category: Nature Spot.",
    "latitude": 36.0270575,
    "longitude": 14.2732115,
    "image_urls": [],
    "category": "Nature Spot",
    "aiGeneratedDescription": null,
    "sources": "\"[]\"",
    "website": null
  },
  {
    "id": 221507589,
    "name": "Drew's Sicilia in Bocca | Maxtura Terrace",
    "description": "An interesting place of category: Food & Drink.",
    "latitude": 36.0608814,
    "longitude": 14.2545531,
    "image_urls": [],
    "category": "Food & Drink",
    "aiGeneratedDescription": null,
    "sources": "\"[]\"",
    "website": null
  },
  {
    "id": 221974359,
    "name": "Bażilika Marija Bambina",
    "description": "An interesting place of category: Historical Building.",
    "latitude": 36.0503305,
    "longitude": 14.2650235,
    "image_urls": [],
    "category": "Historical Building",
    "aiGeneratedDescription": null,
    "sources": "\"[]\"",
    "website": null
  },
  {
    "id": 222088175,
    "name": "Beach Location",
    "description": "An interesting place of category: Beach.",
    "latitude": 36.0489059,
    "longitude": 14.3166634,
    "image_urls": [],
    "category": "Beach",
    "aiGeneratedDescription": null,
    "sources": "\"[]\"",
    "website": null
  },
  {
    "id": 222468441,
    "name": "Art & Culture Location",
    "description": "An interesting place of category: Art & Culture.",
    "latitude": 36.0588791,
    "longitude": 14.2196764,
    "image_urls": [],
    "category": "Art & Culture",
    "aiGeneratedDescription": null,
    "sources": "\"[]\"",
    "website": null
  },
  {
    "id": 222724493,
    "name": "Ta' Ċenċ Cliff",
    "description": "Best access is via the track/path east of the Ta' Ċenċ Hotel",
    "latitude": 36.015683,
    "longitude": 14.2539301,
    "image_urls": [],
    "category": "Landscape",
    "aiGeneratedDescription": null,
    "sources": "\"[]\"",
    "website": null
  },
  {
    "id": 222739100,
    "name": "Mġarr ix-Xini",
    "description": "An interesting place of category: Beach.",
    "latitude": 36.0203167,
    "longitude": 14.2714038,
    "image_urls": [],
    "category": "Beach",
    "aiGeneratedDescription": null,
    "sources": "\"[]\"",
    "website": null
  },
  {
    "id": 222745317,
    "name": "Nature Spot Location",
    "description": "An interesting place of category: Nature Spot.",
    "latitude": 36.025634,
    "longitude": 14.2893424,
    "image_urls": [],
    "category": "Nature Spot",
    "aiGeneratedDescription": null,
    "sources": "\"[]\"",
    "website": null
  },
  {
    "id": 222745318,
    "name": "Beach Location",
    "description": "An interesting place of category: Beach.",
    "latitude": 36.0785458,
    "longitude": 14.2485643,
    "image_urls": [],
    "category": "Beach",
    "aiGeneratedDescription": null,
    "sources": "\"[]\"",
    "website": null
  },
  {
    "id": 222745323,
    "name": "Landscape Location",
    "description": "An interesting place of category: Landscape.",
    "latitude": 36.0612459,
    "longitude": 14.2784644,
    "image_urls": [],
    "category": "Landscape",
    "aiGeneratedDescription": null,
    "sources": "\"[]\"",
    "website": null
  },
  {
    "id": 222745331,
    "name": "Landscape Location",
    "description": "An interesting place of category: Landscape.",
    "latitude": 36.0625086,
    "longitude": 14.2756153,
    "image_urls": [],
    "category": "Landscape",
    "aiGeneratedDescription": null,
    "sources": "\"[]\"",
    "website": null
  },
  {
    "id": 222745336,
    "name": "Pjazzetta Għaxra ta' Diċembru",
    "description": "An interesting place of category: Nature Spot.",
    "latitude": 36.0263406,
    "longitude": 14.2903292,
    "image_urls": [],
    "category": "Nature Spot",
    "aiGeneratedDescription": null,
    "sources": "\"[]\"",
    "website": null
  },
  {
    "id": 224005103,
    "name": "Nature Spot Location",
    "description": "An interesting place of category: Nature Spot.",
    "latitude": 36.0614102,
    "longitude": 14.2157529,
    "image_urls": [],
    "category": "Nature Spot",
    "aiGeneratedDescription": null,
    "sources": "\"[]\"",
    "website": null
  },
  {
    "id": 248424386,
    "name": "Public Toilet Location",
    "description": "An interesting place of category: Public Toilet.",
    "latitude": 36.060564,
    "longitude": 14.278892,
    "image_urls": [],
    "category": "Public Toilet",
    "aiGeneratedDescription": null,
    "sources": "\"[]\"",
    "website": null
  },
  {
    "id": 248796612,
    "name": "Ir-Ramla l-Ħamra",
    "description": "An interesting place of category: Beach.",
    "latitude": 36.0616634,
    "longitude": 14.28412,
    "image_urls": [],
    "category": "Beach",
    "aiGeneratedDescription": null,
    "sources": "\"[]\"",
    "website": null
  },
  {
    "id": 258627656,
    "name": "Ta' Kenuna",
    "description": "An interesting place of category: Historical Building.",
    "latitude": 36.0356402,
    "longitude": 14.2839472,
    "image_urls": [],
    "category": "Historical Building",
    "aiGeneratedDescription": null,
    "sources": "\"[]\"",
    "website": null
  },
  {
    "id": 259253407,
    "name": "Historical Building Location",
    "description": "An interesting place of category: Historical Building.",
    "latitude": 36.0364897,
    "longitude": 14.198601,
    "image_urls": [],
    "category": "Historical Building",
    "aiGeneratedDescription": null,
    "sources": "\"[]\"",
    "website": null
  },
  {
    "id": 261093387,
    "name": "Porto Vecchio Ristorante e Vinoteca",
    "description": "An interesting place of category: Food & Drink.",
    "latitude": 36.0261815,
    "longitude": 14.2975978,
    "image_urls": [],
    "category": "Food & Drink",
    "aiGeneratedDescription": null,
    "sources": "\"[]\"",
    "website": null
  },
  {
    "id": 264128603,
    "name": "Tas-Salvatur",
    "description": "An interesting place of category: Historical Building.",
    "latitude": 36.0664929,
    "longitude": 14.2543813,
    "image_urls": [],
    "category": "Historical Building",
    "aiGeneratedDescription": null,
    "sources": "\"[]\"",
    "website": null
  },
  {
    "id": 274209981,
    "name": "Munxar Playground",
    "description": "An interesting place of category: Nature Spot.",
    "latitude": 36.0317129,
    "longitude": 14.2366303,
    "image_urls": [],
    "category": "Nature Spot",
    "aiGeneratedDescription": null,
    "sources": "\"[]\"",
    "website": null
  },
  {
    "id": 277370774,
    "name": "Landscape Location",
    "description": "An interesting place of category: Landscape.",
    "latitude": 36.0102819,
    "longitude": 14.3271448,
    "image_urls": [],
    "category": "Landscape",
    "aiGeneratedDescription": null,
    "sources": "\"[]\"",
    "website": null
  },
  {
    "id": 277370776,
    "name": "Landscape Location",
    "description": "An interesting place of category: Landscape.",
    "latitude": 36.0125266,
    "longitude": 14.3451726,
    "image_urls": [],
    "category": "Landscape",
    "aiGeneratedDescription": null,
    "sources": "\"[]\"",
    "website": null
  },
  {
    "id": 277370781,
    "name": "Landscape Location",
    "description": "An interesting place of category: Landscape.",
    "latitude": 36.0084922,
    "longitude": 14.3284969,
    "image_urls": [],
    "category": "Landscape",
    "aiGeneratedDescription": null,
    "sources": "\"[]\"",
    "website": null
  },
  {
    "id": 277373536,
    "name": "Landscape Location",
    "description": "An interesting place of category: Landscape.",
    "latitude": 36.0481097,
    "longitude": 14.2338447,
    "image_urls": [],
    "category": "Landscape",
    "aiGeneratedDescription": null,
    "sources": "\"[]\"",
    "website": null
  },
  {
    "id": 277968186,
    "name": "San Lawrenz Park",
    "description": "An interesting place of category: Nature Spot.",
    "latitude": 36.056084,
    "longitude": 14.201268,
    "image_urls": [],
    "category": "Nature Spot",
    "aiGeneratedDescription": null,
    "sources": "\"[]\"",
    "website": null
  },
  {
    "id": 279285991,
    "name": "Amabile Cauchi",
    "description": "An interesting place of category: Nature Spot.",
    "latitude": 36.0270693,
    "longitude": 14.291129,
    "image_urls": [],
    "category": "Nature Spot",
    "aiGeneratedDescription": null,
    "sources": "\"[]\"",
    "website": null
  },
  {
    "id": 291550788,
    "name": "Nature Spot Location",
    "description": "An interesting place of category: Nature Spot.",
    "latitude": 36.0340634,
    "longitude": 14.2577768,
    "image_urls": [],
    "category": "Nature Spot",
    "aiGeneratedDescription": null,
    "sources": "\"[]\"",
    "website": null
  },
  {
    "id": 292135059,
    "name": "Nature Spot Location",
    "description": "An interesting place of category: Nature Spot.",
    "latitude": 36.0337574,
    "longitude": 14.304194,
    "image_urls": [],
    "category": "Nature Spot",
    "aiGeneratedDescription": null,
    "sources": "\"[]\"",
    "website": null
  },
  {
    "id": 296396808,
    "name": "Għar Qawqla",
    "description": "An interesting place of category: Nature Spot.",
    "latitude": 36.0734674,
    "longitude": 14.2627205,
    "image_urls": [],
    "category": "Nature Spot",
    "aiGeneratedDescription": null,
    "sources": "\"[]\"",
    "website": null
  },
  {
    "id": 298483664,
    "name": "Landscape Location",
    "description": "An interesting place of category: Landscape.",
    "latitude": 36.0296109,
    "longitude": 14.3203301,
    "image_urls": [],
    "category": "Landscape",
    "aiGeneratedDescription": null,
    "sources": "\"[]\"",
    "website": null
  },
  {
    "id": 298483672,
    "name": "Qala Windmill",
    "description": "The island's best preserved windmill- Built around 1860.",
    "latitude": 36.038643,
    "longitude": 14.3112123,
    "image_urls": [],
    "category": "Historical Building",
    "aiGeneratedDescription": null,
    "sources": "\"[]\"",
    "website": null
  },
  {
    "id": 298483674,
    "name": "Landscape Location",
    "description": "An interesting place of category: Landscape.",
    "latitude": 36.0297085,
    "longitude": 14.3199117,
    "image_urls": [],
    "category": "Landscape",
    "aiGeneratedDescription": null,
    "sources": "\"[]\"",
    "website": null
  },
  {
    "id": 306090905,
    "name": "Extra Divers Gozo",
    "description": "An interesting place of category: Shopping.",
    "latitude": 36.0266957,
    "longitude": 14.2958161,
    "image_urls": [],
    "category": "Shopping",
    "aiGeneratedDescription": null,
    "sources": "\"[]\"",
    "website": null
  },
  {
    "id": 306090924,
    "name": "M&M Butcher",
    "description": "An interesting place of category: Shopping.",
    "latitude": 36.0272,
    "longitude": 14.2902445,
    "image_urls": [],
    "category": "Shopping",
    "aiGeneratedDescription": null,
    "sources": "\"[]\"",
    "website": null
  },
  {
    "id": 306090925,
    "name": "Debono's Bakery",
    "description": "An interesting place of category: Shopping.",
    "latitude": 36.0268624,
    "longitude": 14.2898231,
    "image_urls": [],
    "category": "Shopping",
    "aiGeneratedDescription": null,
    "sources": "\"[]\"",
    "website": null
  },
  {
    "id": 306090927,
    "name": "Rexy",
    "description": "An interesting place of category: Food & Drink.",
    "latitude": 36.02403,
    "longitude": 14.2880482,
    "image_urls": [],
    "category": "Food & Drink",
    "aiGeneratedDescription": null,
    "sources": "\"[]\"",
    "website": null
  },
  {
    "id": 306090932,
    "name": "Għajnsielem F.C.",
    "description": "An interesting place of category: Food & Drink.",
    "latitude": 36.025725,
    "longitude": 14.2896817,
    "image_urls": [],
    "category": "Food & Drink",
    "aiGeneratedDescription": null,
    "sources": "\"[]\"",
    "website": null
  },
  {
    "id": 306268463,
    "name": "Pizza Marina Pub",
    "description": "An interesting place of category: Food & Drink.",
    "latitude": 36.0236931,
    "longitude": 14.2972607,
    "image_urls": [],
    "category": "Food & Drink",
    "aiGeneratedDescription": null,
    "sources": "\"[]\"",
    "website": null
  },
  {
    "id": 306268472,
    "name": "Sicilia in bocca",
    "description": "An interesting place of category: Food & Drink.",
    "latitude": 36.0247968,
    "longitude": 14.2966444,
    "image_urls": [],
    "category": "Food & Drink",
    "aiGeneratedDescription": null,
    "sources": "\"[]\"",
    "website": null
  },
  {
    "id": 306268481,
    "name": "Huan Yuan",
    "description": "An interesting place of category: Food & Drink.",
    "latitude": 36.0244607,
    "longitude": 14.2961515,
    "image_urls": [],
    "category": "Food & Drink",
    "aiGeneratedDescription": null,
    "sources": "\"[]\"",
    "website": null
  },
  {
    "id": 306268482,
    "name": "Bancini",
    "description": "An interesting place of category: Food & Drink.",
    "latitude": 36.0244212,
    "longitude": 14.2962716,
    "image_urls": [],
    "category": "Food & Drink",
    "aiGeneratedDescription": null,
    "sources": "\"[]\"",
    "website": null
  },
  {
    "id": 306268485,
    "name": "Southern Fried Chicken",
    "description": "An interesting place of category: Food & Drink.",
    "latitude": 36.0241347,
    "longitude": 14.2966879,
    "image_urls": [],
    "category": "Food & Drink",
    "aiGeneratedDescription": null,
    "sources": "\"[]\"",
    "website": null
  },
  {
    "id": 306285019,
    "name": "Public Toilet Location",
    "description": "An interesting place of category: Public Toilet.",
    "latitude": 36.0283646,
    "longitude": 14.3218943,
    "image_urls": [],
    "category": "Public Toilet",
    "aiGeneratedDescription": null,
    "sources": "\"[]\"",
    "website": null
  },
  {
    "id": 306285135,
    "name": "Calypso Diving",
    "description": "An interesting place of category: Shopping.",
    "latitude": 36.0712399,
    "longitude": 14.2604974,
    "image_urls": [],
    "category": "Shopping",
    "aiGeneratedDescription": null,
    "sources": "\"[]\"",
    "website": null
  },
  {
    "id": 306285136,
    "name": "Odyssey",
    "description": "An interesting place of category: Food & Drink.",
    "latitude": 36.0722477,
    "longitude": 14.2610821,
    "image_urls": [],
    "category": "Food & Drink",
    "aiGeneratedDescription": null,
    "sources": "\"[]\"",
    "website": null
  },
  {
    "id": 311932298,
    "name": "Utina Diving College",
    "description": "An interesting place of category: Shopping.",
    "latitude": 36.0308031,
    "longitude": 14.2177416,
    "image_urls": [],
    "category": "Shopping",
    "aiGeneratedDescription": null,
    "sources": "\"[]\"",
    "website": null
  },
  {
    "id": 311932299,
    "name": "Da Manuel",
    "description": "An interesting place of category: Food & Drink.",
    "latitude": 36.0274195,
    "longitude": 14.2167729,
    "image_urls": [],
    "category": "Food & Drink",
    "aiGeneratedDescription": null,
    "sources": "\"[]\"",
    "website": null
  },
  {
    "id": 315245637,
    "name": "Horatio's Tavern",
    "description": "An interesting place of category: Food & Drink.",
    "latitude": 36.0248863,
    "longitude": 14.2961769,
    "image_urls": [],
    "category": "Food & Drink",
    "aiGeneratedDescription": null,
    "sources": "\"[]\"",
    "website": null
  },
  {
    "id": 315245640,
    "name": "Monkey's Fist Tavern",
    "description": "An interesting place of category: Food & Drink.",
    "latitude": 36.0249205,
    "longitude": 14.2959679,
    "image_urls": [],
    "category": "Food & Drink",
    "aiGeneratedDescription": null,
    "sources": "\"[]\"",
    "website": null
  },
  {
    "id": 315245641,
    "name": "Ta' Tona",
    "description": "An interesting place of category: Food & Drink.",
    "latitude": 36.0248869,
    "longitude": 14.2964299,
    "image_urls": [],
    "category": "Food & Drink",
    "aiGeneratedDescription": null,
    "sources": "\"[]\"",
    "website": null
  },
  {
    "id": 315245665,
    "name": "Tmun restaurant",
    "description": "An interesting place of category: Food & Drink.",
    "latitude": 36.0252508,
    "longitude": 14.2961783,
    "image_urls": [],
    "category": "Food & Drink",
    "aiGeneratedDescription": null,
    "sources": "\"[]\"",
    "website": null
  },
  {
    "id": 315247945,
    "name": "Nature Spot Location",
    "description": "An interesting place of category: Nature Spot.",
    "latitude": 36.0249183,
    "longitude": 14.2884493,
    "image_urls": [],
    "category": "Nature Spot",
    "aiGeneratedDescription": null,
    "sources": "\"[]\"",
    "website": null
  },
  {
    "id": 322061347,
    "name": "Smuggler's Cave",
    "description": "An interesting place of category: Food & Drink.",
    "latitude": 36.0718582,
    "longitude": 14.2607935,
    "image_urls": [],
    "category": "Food & Drink",
    "aiGeneratedDescription": null,
    "sources": "\"[]\"",
    "website": null
  },
  {
    "id": 322061358,
    "name": "La Pulena",
    "description": "An interesting place of category: Food & Drink.",
    "latitude": 36.0723913,
    "longitude": 14.2611694,
    "image_urls": [],
    "category": "Food & Drink",
    "aiGeneratedDescription": null,
    "sources": "\"[]\"",
    "website": null
  },
  {
    "id": 322061368,
    "name": "Public Toilet Location",
    "description": "An interesting place of category: Public Toilet.",
    "latitude": 36.0698336,
    "longitude": 14.2606239,
    "image_urls": [],
    "category": "Public Toilet",
    "aiGeneratedDescription": null,
    "sources": "\"[]\"",
    "website": null
  },
  {
    "id": 322061521,
    "name": "Glassbox",
    "description": "An interesting place of category: Food & Drink.",
    "latitude": 36.0708865,
    "longitude": 14.2594811,
    "image_urls": [],
    "category": "Food & Drink",
    "aiGeneratedDescription": null,
    "sources": "\"[]\"",
    "website": null
  },
  {
    "id": 322061538,
    "name": "Smiley's Restaurant",
    "description": "An interesting place of category: Food & Drink.",
    "latitude": 36.0708905,
    "longitude": 14.2596298,
    "image_urls": [],
    "category": "Food & Drink",
    "aiGeneratedDescription": null,
    "sources": "\"[]\"",
    "website": null
  },
  {
    "id": 322061543,
    "name": "The Rooftop Restaurant",
    "description": "An interesting place of category: Food & Drink.",
    "latitude": 36.0705449,
    "longitude": 14.2594255,
    "image_urls": [],
    "category": "Food & Drink",
    "aiGeneratedDescription": null,
    "sources": "\"[]\"",
    "website": null
  },
  {
    "id": 322061550,
    "name": "Lantern Guesthouse",
    "description": "An interesting place of category: Food & Drink.",
    "latitude": 36.0706431,
    "longitude": 14.2589861,
    "image_urls": [],
    "category": "Food & Drink",
    "aiGeneratedDescription": null,
    "sources": "\"[]\"",
    "website": null
  },
  {
    "id": 322061552,
    "name": "Kohinoor",
    "description": "An interesting place of category: Food & Drink.",
    "latitude": 36.0717123,
    "longitude": 14.2579452,
    "image_urls": [],
    "category": "Food & Drink",
    "aiGeneratedDescription": null,
    "sources": "\"[]\"",
    "website": null
  },
  {
    "id": 322061553,
    "name": "The Pierre's",
    "description": "An interesting place of category: Food & Drink.",
    "latitude": 36.0718315,
    "longitude": 14.2580329,
    "image_urls": [],
    "category": "Food & Drink",
    "aiGeneratedDescription": null,
    "sources": "\"[]\"",
    "website": null
  },
  {
    "id": 322061762,
    "name": "Ripples Indian Fusion",
    "description": "An interesting place of category: Food & Drink.",
    "latitude": 36.0768981,
    "longitude": 14.2514853,
    "image_urls": [],
    "category": "Food & Drink",
    "aiGeneratedDescription": null,
    "sources": "\"[]\"",
    "website": null
  },
  {
    "id": 322061910,
    "name": "Otters Bistro",
    "description": "An interesting place of category: Food & Drink.",
    "latitude": 36.0733704,
    "longitude": 14.2579616,
    "image_urls": [],
    "category": "Food & Drink",
    "aiGeneratedDescription": null,
    "sources": "\"[]\"",
    "website": null
  },
  {
    "id": 322062048,
    "name": "Shopping Location",
    "description": "An interesting place of category: Shopping.",
    "latitude": 36.0582417,
    "longitude": 14.2742445,
    "image_urls": [],
    "category": "Shopping",
    "aiGeneratedDescription": null,
    "sources": "\"[]\"",
    "website": null
  },
  {
    "id": 322591093,
    "name": "Seagulls Pizzeria",
    "description": "An interesting place of category: Food & Drink.",
    "latitude": 36.0780083,
    "longitude": 14.2505478,
    "image_urls": [],
    "category": "Food & Drink",
    "aiGeneratedDescription": null,
    "sources": "\"[]\"",
    "website": null
  },
  {
    "id": 322591114,
    "name": "Horizon",
    "description": "An interesting place of category: Food & Drink.",
    "latitude": 36.0781641,
    "longitude": 14.2507909,
    "image_urls": [],
    "category": "Food & Drink",
    "aiGeneratedDescription": null,
    "sources": "\"[]\"",
    "website": null
  },
  {
    "id": 322591289,
    "name": "Il-Bajja tax-Xwejni",
    "description": "An interesting place of category: Diving Site.",
    "latitude": 36.0791713,
    "longitude": 14.2480852,
    "image_urls": [],
    "category": "Diving Site",
    "aiGeneratedDescription": null,
    "sources": "\"[]\"",
    "website": null
  },
  {
    "id": 322591484,
    "name": "Saliba Store",
    "description": "An interesting place of category: Shopping.",
    "latitude": 36.0729081,
    "longitude": 14.2365799,
    "image_urls": [],
    "category": "Shopping",
    "aiGeneratedDescription": null,
    "sources": "\"[]\"",
    "website": null
  },
  {
    "id": 322591542,
    "name": "Viewpoint Location",
    "description": "An interesting place of category: Viewpoint.",
    "latitude": 36.0748854,
    "longitude": 14.2362304,
    "image_urls": [],
    "category": "Viewpoint",
    "aiGeneratedDescription": null,
    "sources": "\"[]\"",
    "website": null
  },
  {
    "id": 322591611,
    "name": "Public Toilet Location",
    "description": "An interesting place of category: Public Toilet.",
    "latitude": 36.0689247,
    "longitude": 14.2354597,
    "image_urls": [],
    "category": "Public Toilet",
    "aiGeneratedDescription": null,
    "sources": "\"[]\"",
    "website": null
  },
  {
    "id": 322591643,
    "name": "Ta' Dirjanu",
    "description": "An interesting place of category: Shopping.",
    "latitude": 36.070917,
    "longitude": 14.2563974,
    "image_urls": [],
    "category": "Shopping",
    "aiGeneratedDescription": null,
    "sources": "\"[]\"",
    "website": null
  },
  {
    "id": 322591644,
    "name": "Galeta Super Market",
    "description": "An interesting place of category: Shopping.",
    "latitude": 36.0712081,
    "longitude": 14.2562069,
    "image_urls": [],
    "category": "Shopping",
    "aiGeneratedDescription": null,
    "sources": "\"[]\"",
    "website": null
  },
  {
    "id": 324400933,
    "name": "G & R Supermarket",
    "description": "An interesting place of category: Shopping.",
    "latitude": 36.0468279,
    "longitude": 14.2439123,
    "image_urls": [],
    "category": "Shopping",
    "aiGeneratedDescription": null,
    "sources": "\"[]\"",
    "website": null
  },
  {
    "id": 324400936,
    "name": "Blooms Cafe",
    "description": "An interesting place of category: Food & Drink.",
    "latitude": 36.0446048,
    "longitude": 14.2410208,
    "image_urls": [],
    "category": "Food & Drink",
    "aiGeneratedDescription": null,
    "sources": "\"[]\"",
    "website": null
  },
  {
    "id": 324400938,
    "name": "Glory of England Bar",
    "description": "An interesting place of category: Food & Drink.",
    "latitude": 36.044863,
    "longitude": 14.2411126,
    "image_urls": [],
    "category": "Food & Drink",
    "aiGeneratedDescription": null,
    "sources": "\"[]\"",
    "website": null
  },
  {
    "id": 324400939,
    "name": "Ta' Dirjanu Food Store",
    "description": "An interesting place of category: Shopping.",
    "latitude": 36.0457506,
    "longitude": 14.233372,
    "image_urls": [],
    "category": "Shopping",
    "aiGeneratedDescription": null,
    "sources": "\"[]\"",
    "website": null
  },
  {
    "id": 324401036,
    "name": "Charles Master Cut Meats",
    "description": "An interesting place of category: Shopping.",
    "latitude": 36.039675,
    "longitude": 14.2410655,
    "image_urls": [],
    "category": "Shopping",
    "aiGeneratedDescription": null,
    "sources": "\"[]\"",
    "website": null
  },
  {
    "id": 324401040,
    "name": "TaPie Cafe",
    "description": "An interesting place of category: Food & Drink.",
    "latitude": 36.0422324,
    "longitude": 14.2404276,
    "image_urls": [],
    "category": "Food & Drink",
    "aiGeneratedDescription": null,
    "sources": "\"[]\"",
    "website": null
  },
  {
    "id": 324401062,
    "name": "Light House Discount Supermarket",
    "description": "An interesting place of category: Shopping.",
    "latitude": 36.0593801,
    "longitude": 14.2258464,
    "image_urls": [],
    "category": "Shopping",
    "aiGeneratedDescription": null,
    "sources": "\"[]\"",
    "website": null
  },
  {
    "id": 324401077,
    "name": "Public Toilet Location",
    "description": "An interesting place of category: Public Toilet.",
    "latitude": 36.0586501,
    "longitude": 14.2259496,
    "image_urls": [],
    "category": "Public Toilet",
    "aiGeneratedDescription": null,
    "sources": "\"[]\"",
    "website": null
  },
  {
    "id": 324401330,
    "name": "Lunzjata Valley Belvedere Viewpoint",
    "description": "An interesting place of category: Viewpoint.",
    "latitude": 36.0380691,
    "longitude": 14.2347368,
    "image_urls": [],
    "category": "Viewpoint",
    "aiGeneratedDescription": null,
    "sources": "\"[]\"",
    "website": null
  },
  {
    "id": 324401337,
    "name": "Public Toilet Location",
    "description": "An interesting place of category: Public Toilet.",
    "latitude": 36.0389016,
    "longitude": 14.2364184,
    "image_urls": [],
    "category": "Public Toilet",
    "aiGeneratedDescription": null,
    "sources": "\"[]\"",
    "website": null
  },
  {
    "id": 324401435,
    "name": "Cini's Bakery",
    "description": "An interesting place of category: Shopping.",
    "latitude": 36.0409204,
    "longitude": 14.2371229,
    "image_urls": [],
    "category": "Shopping",
    "aiGeneratedDescription": null,
    "sources": "\"[]\"",
    "website": null
  },
  {
    "id": 324401460,
    "name": "Le Val D'Or",
    "description": "An interesting place of category: Food & Drink.",
    "latitude": 36.0313147,
    "longitude": 14.2189657,
    "image_urls": [],
    "category": "Food & Drink",
    "aiGeneratedDescription": null,
    "sources": "\"[]\"",
    "website": null
  },
  {
    "id": 324401463,
    "name": "Sea Shells",
    "description": "An interesting place of category: Food & Drink.",
    "latitude": 36.0313473,
    "longitude": 14.2190478,
    "image_urls": [],
    "category": "Food & Drink",
    "aiGeneratedDescription": null,
    "sources": "\"[]\"",
    "website": null
  },
  {
    "id": 324401473,
    "name": "Il-Kantaa",
    "description": "An interesting place of category: Food & Drink.",
    "latitude": 36.031508,
    "longitude": 14.2193265,
    "image_urls": [],
    "category": "Food & Drink",
    "aiGeneratedDescription": null,
    "sources": "\"[]\"",
    "website": null
  },
  {
    "id": 324401484,
    "name": "Valley View",
    "description": "An interesting place of category: Food & Drink.",
    "latitude": 36.0313857,
    "longitude": 14.2191117,
    "image_urls": [],
    "category": "Food & Drink",
    "aiGeneratedDescription": null,
    "sources": "\"[]\"",
    "website": null
  },
  {
    "id": 324401534,
    "name": "Silver Seas",
    "description": "An interesting place of category: Food & Drink.",
    "latitude": 36.0305456,
    "longitude": 14.2172597,
    "image_urls": [],
    "category": "Food & Drink",
    "aiGeneratedDescription": null,
    "sources": "\"[]\"",
    "website": null
  },
  {
    "id": 324401550,
    "name": "Antoinette's",
    "description": "An interesting place of category: Food & Drink.",
    "latitude": 36.0308362,
    "longitude": 14.2179128,
    "image_urls": [],
    "category": "Food & Drink",
    "aiGeneratedDescription": null,
    "sources": "\"[]\"",
    "website": null
  },
  {
    "id": 324401552,
    "name": "Village Inn",
    "description": "An interesting place of category: Food & Drink.",
    "latitude": 36.0307509,
    "longitude": 14.2174028,
    "image_urls": [],
    "category": "Food & Drink",
    "aiGeneratedDescription": null,
    "sources": "\"[]\"",
    "website": null
  },
  {
    "id": 324401554,
    "name": "cseven",
    "description": "An interesting place of category: Food & Drink.",
    "latitude": 36.0306003,
    "longitude": 14.2176172,
    "image_urls": [],
    "category": "Food & Drink",
    "aiGeneratedDescription": null,
    "sources": "\"[]\"",
    "website": null
  },
  {
    "id": 324401565,
    "name": "Bonitos",
    "description": "An interesting place of category: Food & Drink.",
    "latitude": 36.0313195,
    "longitude": 14.217562,
    "image_urls": [],
    "category": "Food & Drink",
    "aiGeneratedDescription": null,
    "sources": "\"[]\"",
    "website": null
  },
  {
    "id": 324401568,
    "name": "nemo",
    "description": "An interesting place of category: Food & Drink.",
    "latitude": 36.0309595,
    "longitude": 14.2172616,
    "image_urls": [],
    "category": "Food & Drink",
    "aiGeneratedDescription": null,
    "sources": "\"[]\"",
    "website": null
  },
  {
    "id": 324401579,
    "name": "Public Toilet Location",
    "description": "An interesting place of category: Public Toilet.",
    "latitude": 36.0299704,
    "longitude": 14.218028,
    "image_urls": [],
    "category": "Public Toilet",
    "aiGeneratedDescription": null,
    "sources": "\"[]\"",
    "website": null
  },
  {
    "id": 324401608,
    "name": "Public Toilet Location",
    "description": "An interesting place of category: Public Toilet.",
    "latitude": 36.0308462,
    "longitude": 14.2167406,
    "image_urls": [],
    "category": "Public Toilet",
    "aiGeneratedDescription": null,
    "sources": "\"[]\"",
    "website": null
  },
  {
    "id": 324401612,
    "name": "Ta' Nona",
    "description": "An interesting place of category: Food & Drink.",
    "latitude": 36.0299225,
    "longitude": 14.2175327,
    "image_urls": [],
    "category": "Food & Drink",
    "aiGeneratedDescription": null,
    "sources": "\"[]\"",
    "website": null
  },
  {
    "id": 324401711,
    "name": "Churchill",
    "description": "An interesting place of category: Food & Drink.",
    "latitude": 36.0297244,
    "longitude": 14.2170962,
    "image_urls": [],
    "category": "Food & Drink",
    "aiGeneratedDescription": null,
    "sources": "\"[]\"",
    "website": null
  },
  {
    "id": 324401874,
    "name": "Il Terrazzo",
    "description": "An interesting place of category: Food & Drink.",
    "latitude": 36.0289995,
    "longitude": 14.2157838,
    "image_urls": [
      "https://images.pexels.com/photos/27822697/pexels-photo-27822697.jpeg?auto=compress&cs=tinysrgb&h=650&w=940",
      "https://images.pexels.com/photos/14457052/pexels-photo-14457052.jpeg?auto=compress&cs=tinysrgb&h=650&w=940",
      "https://images.pexels.com/photos/19988402/pexels-photo-19988402.jpeg?auto=compress&cs=tinysrgb&h=650&w=940",
      "https://images.pexels.com/photos/33035362/pexels-photo-33035362.jpeg?auto=compress&cs=tinysrgb&h=650&w=940",
      "https://images.pexels.com/photos/13542451/pexels-photo-13542451.jpeg?auto=compress&cs=tinysrgb&h=650&w=940"
    ],
    "category": "Food & Drink",
    "aiGeneratedDescription": null,
    "sources": "\"[]\"",
    "website": null
  },
  {
    "id": 324401878,
    "name": "Iċ-Ċima",
    "description": "An interesting place of category: Food & Drink.",
    "latitude": 36.0290926,
    "longitude": 14.2158597,
    "image_urls": [],
    "category": "Food & Drink",
    "aiGeneratedDescription": null,
    "sources": "\"[]\"",
    "website": null
  },
  {
    "id": 324401914,
    "name": "Viewpoint Location",
    "description": "An interesting place of category: Viewpoint.",
    "latitude": 36.0304044,
    "longitude": 14.2161493,
    "image_urls": [],
    "category": "Viewpoint",
    "aiGeneratedDescription": null,
    "sources": "\"[]\"",
    "website": null
  },
  {
    "id": 324402159,
    "name": "Shopping Location",
    "description": "An interesting place of category: Shopping.",
    "latitude": 36.0304236,
    "longitude": 14.2350079,
    "image_urls": [],
    "category": "Shopping",
    "aiGeneratedDescription": null,
    "sources": "\"[]\"",
    "website": null
  },
  {
    "id": 324402161,
    "name": "Shopping Location",
    "description": "An interesting place of category: Shopping.",
    "latitude": 36.0316909,
    "longitude": 14.2344569,
    "image_urls": [],
    "category": "Shopping",
    "aiGeneratedDescription": null,
    "sources": "\"[]\"",
    "website": null
  },
  {
    "id": 324402180,
    "name": "Sannat Cliffs",
    "description": "An interesting place of category: Viewpoint.",
    "latitude": 36.0218558,
    "longitude": 14.2269798,
    "image_urls": [],
    "category": "Viewpoint",
    "aiGeneratedDescription": null,
    "sources": "\"[]\"",
    "website": null
  },
  {
    "id": 324669130,
    "name": "It-Rcina tar-Ramla",
    "description": "An interesting place of category: Food & Drink.",
    "latitude": 36.0608153,
    "longitude": 14.2828641,
    "image_urls": [],
    "category": "Food & Drink",
    "aiGeneratedDescription": null,
    "sources": "\"[]\"",
    "website": null
  },
  {
    "id": 324669162,
    "name": "Johny's Supermarket",
    "description": "An interesting place of category: Shopping.",
    "latitude": 36.0446136,
    "longitude": 14.291701,
    "image_urls": [],
    "category": "Shopping",
    "aiGeneratedDescription": null,
    "sources": "\"[]\"",
    "website": null
  },
  {
    "id": 324669310,
    "name": "Mekren's",
    "description": "An interesting place of category: Shopping.",
    "latitude": 36.0401469,
    "longitude": 14.2883746,
    "image_urls": [],
    "category": "Shopping",
    "aiGeneratedDescription": null,
    "sources": "\"[]\"",
    "website": null
  },
  {
    "id": 324669629,
    "name": "Grech's Bakery",
    "description": "An interesting place of category: Shopping.",
    "latitude": 36.0374609,
    "longitude": 14.288355,
    "image_urls": [],
    "category": "Shopping",
    "aiGeneratedDescription": null,
    "sources": "\"[]\"",
    "website": null
  },
  {
    "id": 324669682,
    "name": "Josies Supermarket",
    "description": "An interesting place of category: Shopping.",
    "latitude": 36.0379417,
    "longitude": 14.2929699,
    "image_urls": [],
    "category": "Shopping",
    "aiGeneratedDescription": null,
    "sources": "\"[]\"",
    "website": null
  },
  {
    "id": 324669716,
    "name": "The Kelinu Grima Maritime Museum",
    "description": "An interesting place of category: Art & Culture.",
    "latitude": 36.0371779,
    "longitude": 14.293135,
    "image_urls": [],
    "category": "Art & Culture",
    "aiGeneratedDescription": null,
    "sources": "\"[]\"",
    "website": null
  },
  {
    "id": 325699119,
    "name": "Bellusa Cafe",
    "description": "An interesting place of category: Food & Drink.",
    "latitude": 36.0446157,
    "longitude": 14.2388382,
    "image_urls": [],
    "category": "Food & Drink",
    "aiGeneratedDescription": null,
    "sources": "\"[]\"",
    "website": null
  },
  {
    "id": 325699120,
    "name": "Public Toilet Location",
    "description": "An interesting place of category: Public Toilet.",
    "latitude": 36.0448439,
    "longitude": 14.2388172,
    "image_urls": [],
    "category": "Public Toilet",
    "aiGeneratedDescription": null,
    "sources": "\"[]\"",
    "website": null
  },
  {
    "id": 325699126,
    "name": "Red Cafe",
    "description": "An interesting place of category: Food & Drink.",
    "latitude": 36.0446017,
    "longitude": 14.2392309,
    "image_urls": [],
    "category": "Food & Drink",
    "aiGeneratedDescription": null,
    "sources": "\"[]\"",
    "website": null
  },
  {
    "id": 325699127,
    "name": "It-Tokk",
    "description": "An interesting place of category: Food & Drink.",
    "latitude": 36.0446409,
    "longitude": 14.2395236,
    "image_urls": [],
    "category": "Food & Drink",
    "aiGeneratedDescription": null,
    "sources": "\"[]\"",
    "website": null
  },
  {
    "id": 325699154,
    "name": "Il-Panzier",
    "description": "An interesting place of category: Food & Drink.",
    "latitude": 36.0429328,
    "longitude": 14.2390093,
    "image_urls": [],
    "category": "Food & Drink",
    "aiGeneratedDescription": null,
    "sources": "\"[]\"",
    "website": null
  },
  {
    "id": 325699171,
    "name": "Public Toilet Location",
    "description": "An interesting place of category: Public Toilet.",
    "latitude": 36.0440685,
    "longitude": 14.2410192,
    "image_urls": [],
    "category": "Public Toilet",
    "aiGeneratedDescription": null,
    "sources": "\"[]\"",
    "website": null
  },
  {
    "id": 325699298,
    "name": "Ping's Dynasty Sushi Chinese Restaurant",
    "description": "An interesting place of category: Food & Drink.",
    "latitude": 36.0420258,
    "longitude": 14.2454114,
    "image_urls": [],
    "category": "Food & Drink",
    "aiGeneratedDescription": null,
    "sources": "\"[]\"",
    "website": null
  },
  {
    "id": 325699318,
    "name": "Flamingo",
    "description": "An interesting place of category: Food & Drink.",
    "latitude": 36.0427469,
    "longitude": 14.2460712,
    "image_urls": [],
    "category": "Food & Drink",
    "aiGeneratedDescription": null,
    "sources": "\"[]\"",
    "website": null
  },
  {
    "id": 325699319,
    "name": "Tamarisk",
    "description": "An interesting place of category: Food & Drink.",
    "latitude": 36.0433666,
    "longitude": 14.2455259,
    "image_urls": [],
    "category": "Food & Drink",
    "aiGeneratedDescription": null,
    "sources": "\"[]\"",
    "website": null
  },
  {
    "id": 325699387,
    "name": "Public Toilet Location",
    "description": "An interesting place of category: Public Toilet.",
    "latitude": 36.0437523,
    "longitude": 14.2438144,
    "image_urls": [],
    "category": "Public Toilet",
    "aiGeneratedDescription": null,
    "sources": "\"[]\"",
    "website": null
  },
  {
    "id": 325699413,
    "name": "Ta' Frenċ",
    "description": "An interesting place of category: Food & Drink.",
    "latitude": 36.0599116,
    "longitude": 14.2540032,
    "image_urls": [],
    "category": "Food & Drink",
    "aiGeneratedDescription": null,
    "sources": "\"[]\"",
    "website": null
  },
  {
    "id": 325699414,
    "name": "Tuck-Inn",
    "description": "An interesting place of category: Food & Drink.",
    "latitude": 36.0701333,
    "longitude": 14.2599161,
    "image_urls": [],
    "category": "Food & Drink",
    "aiGeneratedDescription": null,
    "sources": "\"[]\"",
    "website": null
  },
  {
    "id": 325814265,
    "name": "La Stanza",
    "description": "An interesting place of category: Food & Drink.",
    "latitude": 36.0483136,
    "longitude": 14.2373884,
    "image_urls": [],
    "category": "Food & Drink",
    "aiGeneratedDescription": null,
    "sources": "\"[]\"",
    "website": null
  },
  {
    "id": 325815276,
    "name": "Mużew tax-Xjenza Naturali",
    "description": "An interesting place of category: Art & Culture.",
    "latitude": 36.0465993,
    "longitude": 14.2390435,
    "image_urls": [],
    "category": "Art & Culture",
    "aiGeneratedDescription": null,
    "sources": "\"[]\"",
    "website": null
  },
  {
    "id": 325815295,
    "name": "Cathedral Museum",
    "description": "An interesting place of category: Art & Culture.",
    "latitude": 36.0464266,
    "longitude": 14.2399727,
    "image_urls": [],
    "category": "Art & Culture",
    "aiGeneratedDescription": null,
    "sources": "\"[]\"",
    "website": null
  },
  {
    "id": 325815315,
    "name": "Ta' Rikardu",
    "description": "An interesting place of category: Food & Drink.",
    "latitude": 36.0463125,
    "longitude": 14.2396719,
    "image_urls": [],
    "category": "Food & Drink",
    "aiGeneratedDescription": null,
    "sources": "\"[]\"",
    "website": null
  },
  {
    "id": 325815420,
    "name": "Public Toilet Location",
    "description": "An interesting place of category: Public Toilet.",
    "latitude": 36.0457899,
    "longitude": 14.2393633,
    "image_urls": [],
    "category": "Public Toilet",
    "aiGeneratedDescription": null,
    "sources": "\"[]\"",
    "website": null
  },
  {
    "id": 325815428,
    "name": "Public Toilet Location",
    "description": "An interesting place of category: Public Toilet.",
    "latitude": 36.0461933,
    "longitude": 14.2389801,
    "image_urls": [],
    "category": "Public Toilet",
    "aiGeneratedDescription": null,
    "sources": "\"[]\"",
    "website": null
  },
  {
    "id": 325815431,
    "name": "Castle Bar",
    "description": "An interesting place of category: Food & Drink.",
    "latitude": 36.045282,
    "longitude": 14.2389828,
    "image_urls": [],
    "category": "Food & Drink",
    "aiGeneratedDescription": null,
    "sources": "\"[]\"",
    "website": null
  },
  {
    "id": 325815441,
    "name": "Citadel Theatre",
    "description": "An interesting place of category: Art & Culture.",
    "latitude": 36.0451236,
    "longitude": 14.2390264,
    "image_urls": [],
    "category": "Art & Culture",
    "aiGeneratedDescription": null,
    "sources": "\"[]\"",
    "website": null
  },
  {
    "id": 330012906,
    "name": "American Bar",
    "description": "An interesting place of category: Food & Drink.",
    "latitude": 36.0389811,
    "longitude": 14.2893852,
    "image_urls": [],
    "category": "Food & Drink",
    "aiGeneratedDescription": null,
    "sources": "\"[]\"",
    "website": null
  },
  {
    "id": 330012914,
    "name": "Azzopardi",
    "description": "An interesting place of category: Shopping.",
    "latitude": 36.0386276,
    "longitude": 14.2940214,
    "image_urls": [],
    "category": "Shopping",
    "aiGeneratedDescription": null,
    "sources": "\"[]\"",
    "website": null
  },
  {
    "id": 330012922,
    "name": "Public Toilet Location",
    "description": "An interesting place of category: Public Toilet.",
    "latitude": 36.038244,
    "longitude": 14.2941397,
    "image_urls": [],
    "category": "Public Toilet",
    "aiGeneratedDescription": null,
    "sources": "\"[]\"",
    "website": null
  },
  {
    "id": 330012930,
    "name": "Shopping Location",
    "description": "An interesting place of category: Shopping.",
    "latitude": 36.0376717,
    "longitude": 14.2951789,
    "image_urls": [],
    "category": "Shopping",
    "aiGeneratedDescription": null,
    "sources": "\"[]\"",
    "website": null
  },
  {
    "id": 330012948,
    "name": "Art & Culture Location",
    "description": "An interesting place of category: Art & Culture.",
    "latitude": 36.0382429,
    "longitude": 14.2953268,
    "image_urls": [],
    "category": "Art & Culture",
    "aiGeneratedDescription": null,
    "sources": "\"[]\"",
    "website": null
  },
  {
    "id": 330013046,
    "name": "Al Capone",
    "description": "An interesting place of category: Food & Drink.",
    "latitude": 36.0382053,
    "longitude": 14.2962922,
    "image_urls": [],
    "category": "Food & Drink",
    "aiGeneratedDescription": null,
    "sources": "\"[]\"",
    "website": null
  },
  {
    "id": 330013048,
    "name": "Gebuba",
    "description": "An interesting place of category: Food & Drink.",
    "latitude": 36.0380215,
    "longitude": 14.2933007,
    "image_urls": [],
    "category": "Food & Drink",
    "aiGeneratedDescription": null,
    "sources": "\"[]\"",
    "website": null
  },
  {
    "id": 330013130,
    "name": "Viewpoint Location",
    "description": "An interesting place of category: Viewpoint.",
    "latitude": 36.0482159,
    "longitude": 14.2741953,
    "image_urls": [],
    "category": "Viewpoint",
    "aiGeneratedDescription": null,
    "sources": "\"[]\"",
    "website": null
  },
  {
    "id": 330013149,
    "name": "Ramla Store",
    "description": "An interesting place of category: Shopping.",
    "latitude": 36.0491348,
    "longitude": 14.2743364,
    "image_urls": [],
    "category": "Shopping",
    "aiGeneratedDescription": null,
    "sources": "\"[]\"",
    "website": null
  },
  {
    "id": 330037867,
    "name": "Vinyard",
    "description": "An interesting place of category: Food & Drink.",
    "latitude": 36.0401126,
    "longitude": 14.2520501,
    "image_urls": [],
    "category": "Food & Drink",
    "aiGeneratedDescription": null,
    "sources": "\"[]\"",
    "website": null
  },
  {
    "id": 330037965,
    "name": "Friend to all bar",
    "description": "An interesting place of category: Food & Drink.",
    "latitude": 36.0273525,
    "longitude": 14.242783,
    "image_urls": [],
    "category": "Food & Drink",
    "aiGeneratedDescription": null,
    "sources": "\"[]\"",
    "website": null
  },
  {
    "id": 330037974,
    "name": "Public Toilet Location",
    "description": "An interesting place of category: Public Toilet.",
    "latitude": 36.0281137,
    "longitude": 14.2420951,
    "image_urls": [],
    "category": "Public Toilet",
    "aiGeneratedDescription": null,
    "sources": "\"[]\"",
    "website": null
  },
  {
    "id": 330037983,
    "name": "Louis Bar",
    "description": "An interesting place of category: Food & Drink.",
    "latitude": 36.0245872,
    "longitude": 14.2428648,
    "image_urls": [],
    "category": "Food & Drink",
    "aiGeneratedDescription": null,
    "sources": "\"[]\"",
    "website": null
  },
  {
    "id": 330037984,
    "name": "Ta' Rosina",
    "description": "An interesting place of category: Food & Drink.",
    "latitude": 36.024405,
    "longitude": 14.2427964,
    "image_urls": [],
    "category": "Food & Drink",
    "aiGeneratedDescription": null,
    "sources": "\"[]\"",
    "website": null
  },
  {
    "id": 330037987,
    "name": "Matlak Butcher",
    "description": "An interesting place of category: Shopping.",
    "latitude": 36.0247827,
    "longitude": 14.2423296,
    "image_urls": [],
    "category": "Shopping",
    "aiGeneratedDescription": null,
    "sources": "\"[]\"",
    "website": null
  },
  {
    "id": 330038040,
    "name": "Il-Girna",
    "description": "An interesting place of category: Food & Drink.",
    "latitude": 36.0217775,
    "longitude": 14.2498892,
    "image_urls": [],
    "category": "Food & Drink",
    "aiGeneratedDescription": null,
    "sources": "\"[]\"",
    "website": null
  },
  {
    "id": 330038055,
    "name": "X.T. Sports Cafe",
    "description": "An interesting place of category: Food & Drink.",
    "latitude": 36.0321487,
    "longitude": 14.2606493,
    "image_urls": [],
    "category": "Food & Drink",
    "aiGeneratedDescription": null,
    "sources": "\"[]\"",
    "website": null
  },
  {
    "id": 330038060,
    "name": "Public Toilet Location",
    "description": "An interesting place of category: Public Toilet.",
    "latitude": 36.0323226,
    "longitude": 14.2611365,
    "image_urls": [],
    "category": "Public Toilet",
    "aiGeneratedDescription": null,
    "sources": "\"[]\"",
    "website": null
  },
  {
    "id": 330038081,
    "name": "Mariblu Restaurant",
    "description": "An interesting place of category: Food & Drink.",
    "latitude": 36.034301,
    "longitude": 14.2631853,
    "image_urls": [],
    "category": "Food & Drink",
    "aiGeneratedDescription": null,
    "sources": "\"[]\"",
    "website": null
  },
  {
    "id": 337054348,
    "name": "Nature Spot Location",
    "description": "An interesting place of category: Nature Spot.",
    "latitude": 36.0700372,
    "longitude": 14.2600853,
    "image_urls": [],
    "category": "Nature Spot",
    "aiGeneratedDescription": null,
    "sources": "\"[]\"",
    "website": null
  },
  {
    "id": 337175336,
    "name": "Nature Spot Location",
    "description": "An interesting place of category: Nature Spot.",
    "latitude": 36.0687208,
    "longitude": 14.2622037,
    "image_urls": [],
    "category": "Nature Spot",
    "aiGeneratedDescription": null,
    "sources": "\"[]\"",
    "website": null
  },
  {
    "id": 338446845,
    "name": "Nature Spot Location",
    "description": "An interesting place of category: Nature Spot.",
    "latitude": 36.0350162,
    "longitude": 14.2432607,
    "image_urls": [],
    "category": "Nature Spot",
    "aiGeneratedDescription": null,
    "sources": "\"[]\"",
    "website": null
  },
  {
    "id": 340257910,
    "name": "Nature Spot Location",
    "description": "An interesting place of category: Nature Spot.",
    "latitude": 36.0332481,
    "longitude": 14.2516487,
    "image_urls": [],
    "category": "Nature Spot",
    "aiGeneratedDescription": null,
    "sources": "\"[]\"",
    "website": null
  },
  {
    "id": 341129752,
    "name": "Ġnien il-Kunsill tal-Ewropa",
    "description": "An interesting place of category: Nature Spot.",
    "latitude": 36.0494741,
    "longitude": 14.2666047,
    "image_urls": [],
    "category": "Nature Spot",
    "aiGeneratedDescription": null,
    "sources": "\"[]\"",
    "website": null
  },
  {
    "id": 347055868,
    "name": "Nature Spot Location",
    "description": "An interesting place of category: Nature Spot.",
    "latitude": 36.0386013,
    "longitude": 14.2455834,
    "image_urls": [],
    "category": "Nature Spot",
    "aiGeneratedDescription": null,
    "sources": "\"[]\"",
    "website": null
  },
  {
    "id": 349388609,
    "name": "Mitħna Ta' Kola",
    "description": "An interesting place of category: Art & Culture.",
    "latitude": 36.0498138,
    "longitude": 14.2667977,
    "image_urls": [],
    "category": "Art & Culture",
    "aiGeneratedDescription": null,
    "sources": "\"[]\"",
    "website": null
  },
  {
    "id": 352449703,
    "name": "Nature Spot Location",
    "description": "An interesting place of category: Nature Spot.",
    "latitude": 36.0354247,
    "longitude": 14.2548841,
    "image_urls": [],
    "category": "Nature Spot",
    "aiGeneratedDescription": null,
    "sources": "\"[]\"",
    "website": null
  },
  {
    "id": 352449706,
    "name": "Nature Spot Location",
    "description": "An interesting place of category: Nature Spot.",
    "latitude": 36.0353207,
    "longitude": 14.2533781,
    "image_urls": [],
    "category": "Nature Spot",
    "aiGeneratedDescription": null,
    "sources": "\"[]\"",
    "website": null
  },
  {
    "id": 362693897,
    "name": "Nature Spot Location",
    "description": "An interesting place of category: Nature Spot.",
    "latitude": 36.0293343,
    "longitude": 14.2879271,
    "image_urls": [],
    "category": "Nature Spot",
    "aiGeneratedDescription": null,
    "sources": "\"[]\"",
    "website": null
  },
  {
    "id": 376046698,
    "name": "Nature Spot Location",
    "description": "An interesting place of category: Nature Spot.",
    "latitude": 36.0345848,
    "longitude": 14.2519447,
    "image_urls": [],
    "category": "Nature Spot",
    "aiGeneratedDescription": null,
    "sources": "\"[]\"",
    "website": null
  },
  {
    "id": 376046699,
    "name": "Nature Spot Location",
    "description": "An interesting place of category: Nature Spot.",
    "latitude": 36.0346744,
    "longitude": 14.2533176,
    "image_urls": [],
    "category": "Nature Spot",
    "aiGeneratedDescription": null,
    "sources": "\"[]\"",
    "website": null
  },
  {
    "id": 376962693,
    "name": "Landscape Location",
    "description": "An interesting place of category: Landscape.",
    "latitude": 36.028571,
    "longitude": 14.3007228,
    "image_urls": [],
    "category": "Landscape",
    "aiGeneratedDescription": null,
    "sources": "\"[]\"",
    "website": null
  },
  {
    "id": 376962725,
    "name": "Nature Spot Location",
    "description": "An interesting place of category: Nature Spot.",
    "latitude": 36.0345458,
    "longitude": 14.3128814,
    "image_urls": [],
    "category": "Nature Spot",
    "aiGeneratedDescription": null,
    "sources": "\"[]\"",
    "website": null
  },
  {
    "id": 379509432,
    "name": "Nature Spot Location",
    "description": "An interesting place of category: Nature Spot.",
    "latitude": 36.023745,
    "longitude": 14.2955033,
    "image_urls": [],
    "category": "Nature Spot",
    "aiGeneratedDescription": null,
    "sources": "\"[]\"",
    "website": null
  },
  {
    "id": 379531495,
    "name": "Nature Spot Location",
    "description": "An interesting place of category: Nature Spot.",
    "latitude": 36.0297511,
    "longitude": 14.2415239,
    "image_urls": [],
    "category": "Nature Spot",
    "aiGeneratedDescription": null,
    "sources": "\"[]\"",
    "website": null
  },
  {
    "id": 379882536,
    "name": "Mużew tal-Folklor",
    "description": "An interesting place of category: Art & Culture.",
    "latitude": 36.0465432,
    "longitude": 14.2396448,
    "image_urls": [],
    "category": "Art & Culture",
    "aiGeneratedDescription": null,
    "sources": "\"[]\"",
    "website": null
  },
  {
    "id": 379882537,
    "name": "Mużew tal-Arkeoloġija Għawdxija",
    "description": "An interesting place of category: Art & Culture.",
    "latitude": 36.0458084,
    "longitude": 14.2394843,
    "image_urls": [],
    "category": "Art & Culture",
    "aiGeneratedDescription": null,
    "sources": "\"[]\"",
    "website": null
  },
  {
    "id": 379882538,
    "name": "Il-Ħabs il-Qadim",
    "description": "An interesting place of category: Art & Culture.",
    "latitude": 36.0463128,
    "longitude": 14.2391138,
    "image_urls": [],
    "category": "Art & Culture",
    "aiGeneratedDescription": null,
    "sources": "\"[]\"",
    "website": null
  },
  {
    "id": 382617136,
    "name": "Beach Location",
    "description": "An interesting place of category: Beach.",
    "latitude": 36.016248,
    "longitude": 14.329364,
    "image_urls": [],
    "category": "Beach",
    "aiGeneratedDescription": null,
    "sources": "\"[]\"",
    "website": null
  },
  {
    "id": 382617137,
    "name": "Beach Location",
    "description": "An interesting place of category: Beach.",
    "latitude": 36.0165808,
    "longitude": 14.3289568,
    "image_urls": [],
    "category": "Beach",
    "aiGeneratedDescription": null,
    "sources": "\"[]\"",
    "website": null
  },
  {
    "id": 384931936,
    "name": "Marsalforn Jetty",
    "description": "An interesting place of category: Diving Site.",
    "latitude": 36.0749536,
    "longitude": 14.2586424,
    "image_urls": [],
    "category": "Diving Site",
    "aiGeneratedDescription": null,
    "sources": "\"[]\"",
    "website": null
  },
  {
    "id": 384933337,
    "name": "Double Arch Reef",
    "description": "An interesting place of category: Diving Site.",
    "latitude": 36.0817379,
    "longitude": 14.2465145,
    "image_urls": [],
    "category": "Diving Site",
    "aiGeneratedDescription": null,
    "sources": "\"[]\"",
    "website": null
  },
  {
    "id": 384934092,
    "name": "Calypso Cave",
    "description": "An interesting place of category: Diving Site.",
    "latitude": 36.0817449,
    "longitude": 14.2486946,
    "image_urls": [],
    "category": "Diving Site",
    "aiGeneratedDescription": null,
    "sources": "\"[]\"",
    "website": null
  },
  {
    "id": 384934491,
    "name": "Billinghurst Cave",
    "description": "entry/exit ladder",
    "latitude": 36.0812516,
    "longitude": 14.235361,
    "image_urls": [],
    "category": "Landscape",
    "aiGeneratedDescription": null,
    "sources": "\"[]\"",
    "website": null
  },
  {
    "id": 384935638,
    "name": "Cathedral Cave",
    "description": "An interesting place of category: Diving Site.",
    "latitude": 36.080635,
    "longitude": 14.229623,
    "image_urls": [],
    "category": "Diving Site",
    "aiGeneratedDescription": null,
    "sources": "\"[]\"",
    "website": null
  },
  {
    "id": 384936428,
    "name": "Il-Ħofra tal-Bidwin",
    "description": "An interesting place of category: Diving Site.",
    "latitude": 36.0530121,
    "longitude": 14.1887151,
    "image_urls": [],
    "category": "Diving Site",
    "aiGeneratedDescription": null,
    "sources": "\"[]\"",
    "website": null
  },
  {
    "id": 384941960,
    "name": "Xlendi Tunnel",
    "description": "An interesting place of category: Diving Site.",
    "latitude": 36.0296422,
    "longitude": 14.214495,
    "image_urls": [],
    "category": "Diving Site",
    "aiGeneratedDescription": null,
    "sources": "\"[]\"",
    "website": null
  },
  {
    "id": 384942080,
    "name": "Big Bear-Little Bear",
    "description": "An interesting place of category: Diving Site.",
    "latitude": 36.0515249,
    "longitude": 14.1880935,
    "image_urls": [],
    "category": "Diving Site",
    "aiGeneratedDescription": null,
    "sources": "\"[]\"",
    "website": null
  },
  {
    "id": 385017774,
    "name": "Ġnien tal-Bidwi",
    "description": "An interesting place of category: Nature Spot.",
    "latitude": 36.0225596,
    "longitude": 14.241084,
    "image_urls": [],
    "category": "Nature Spot",
    "aiGeneratedDescription": null,
    "sources": "\"[]\"",
    "website": null
  },
  {
    "id": 385017777,
    "name": "Nature Spot Location",
    "description": "An interesting place of category: Nature Spot.",
    "latitude": 36.0486774,
    "longitude": 14.2600738,
    "image_urls": [],
    "category": "Nature Spot",
    "aiGeneratedDescription": null,
    "sources": "\"[]\"",
    "website": null
  },
  {
    "id": 385085680,
    "name": "Nature Spot Location",
    "description": "An interesting place of category: Nature Spot.",
    "latitude": 36.0753168,
    "longitude": 14.2578238,
    "image_urls": [],
    "category": "Nature Spot",
    "aiGeneratedDescription": null,
    "sources": "\"[]\"",
    "website": null
  },
  {
    "id": 386804625,
    "name": "Folk Museum",
    "description": "An interesting place of category: Art & Culture.",
    "latitude": 36.0597494,
    "longitude": 14.2092717,
    "image_urls": [],
    "category": "Art & Culture",
    "aiGeneratedDescription": null,
    "sources": "\"[]\"",
    "website": null
  },
  {
    "id": 387502484,
    "name": "The washing Machine",
    "description": "An interesting place of category: Diving Site.",
    "latitude": 36.0797873,
    "longitude": 14.2465847,
    "image_urls": [],
    "category": "Diving Site",
    "aiGeneratedDescription": null,
    "sources": "\"[]\"",
    "website": null
  },
  {
    "id": 390181581,
    "name": "Landscape Location",
    "description": "An interesting place of category: Landscape.",
    "latitude": 36.0237846,
    "longitude": 14.26381,
    "image_urls": [],
    "category": "Landscape",
    "aiGeneratedDescription": null,
    "sources": "\"[]\"",
    "website": null
  },
  {
    "id": 390181586,
    "name": "Landscape Location",
    "description": "An interesting place of category: Landscape.",
    "latitude": 36.0225165,
    "longitude": 14.2643461,
    "image_urls": [],
    "category": "Landscape",
    "aiGeneratedDescription": null,
    "sources": "\"[]\"",
    "website": null
  },
  {
    "id": 403586625,
    "name": "Nature Spot Location",
    "description": "An interesting place of category: Nature Spot.",
    "latitude": 36.0392273,
    "longitude": 14.2940566,
    "image_urls": [],
    "category": "Nature Spot",
    "aiGeneratedDescription": null,
    "sources": "\"[]\"",
    "website": null
  },
  {
    "id": 406211215,
    "name": "Nature Spot Location",
    "description": "An interesting place of category: Nature Spot.",
    "latitude": 36.0493367,
    "longitude": 14.2689492,
    "image_urls": [],
    "category": "Nature Spot",
    "aiGeneratedDescription": null,
    "sources": "\"[]\"",
    "website": null
  },
  {
    "id": 406423663,
    "name": "Nature Spot Location",
    "description": "An interesting place of category: Nature Spot.",
    "latitude": 36.0431132,
    "longitude": 14.2855771,
    "image_urls": [],
    "category": "Nature Spot",
    "aiGeneratedDescription": null,
    "sources": "\"[]\"",
    "website": null
  },
  {
    "id": 412528713,
    "name": "Public Toilet Location",
    "description": "An interesting place of category: Public Toilet.",
    "latitude": 36.0494486,
    "longitude": 14.2651265,
    "image_urls": [],
    "category": "Public Toilet",
    "aiGeneratedDescription": null,
    "sources": "\"[]\"",
    "website": null
  },
  {
    "id": 467724113,
    "name": "Nature Spot Location",
    "description": "An interesting place of category: Nature Spot.",
    "latitude": 36.0587104,
    "longitude": 14.2258743,
    "image_urls": [],
    "category": "Nature Spot",
    "aiGeneratedDescription": null,
    "sources": "\"[]\"",
    "website": null
  },
  {
    "id": 476737957,
    "name": "Landscape Location",
    "description": "An interesting place of category: Landscape.",
    "latitude": 36.0123258,
    "longitude": 14.3226869,
    "image_urls": [],
    "category": "Landscape",
    "aiGeneratedDescription": null,
    "sources": "\"[]\"",
    "website": null
  },
  {
    "id": 476737959,
    "name": "Landscape Location",
    "description": "An interesting place of category: Landscape.",
    "latitude": 36.0125365,
    "longitude": 14.3201783,
    "image_urls": [],
    "category": "Landscape",
    "aiGeneratedDescription": null,
    "sources": "\"[]\"",
    "website": null
  },
  {
    "id": 476737962,
    "name": "Landscape Location",
    "description": "An interesting place of category: Landscape.",
    "latitude": 36.0191107,
    "longitude": 14.3281494,
    "image_urls": [],
    "category": "Landscape",
    "aiGeneratedDescription": null,
    "sources": "\"[]\"",
    "website": null
  },
  {
    "id": 476737965,
    "name": "Landscape Location",
    "description": "An interesting place of category: Landscape.",
    "latitude": 36.010075,
    "longitude": 14.3271451,
    "image_urls": [],
    "category": "Landscape",
    "aiGeneratedDescription": null,
    "sources": "\"[]\"",
    "website": null
  },
  {
    "id": 476737969,
    "name": "Landscape Location",
    "description": "An interesting place of category: Landscape.",
    "latitude": 36.0106271,
    "longitude": 14.325092,
    "image_urls": [],
    "category": "Landscape",
    "aiGeneratedDescription": null,
    "sources": "\"[]\"",
    "website": null
  },
  {
    "id": 476737970,
    "name": "Landscape Location",
    "description": "An interesting place of category: Landscape.",
    "latitude": 36.0107379,
    "longitude": 14.3256398,
    "image_urls": [],
    "category": "Landscape",
    "aiGeneratedDescription": null,
    "sources": "\"[]\"",
    "website": null
  },
  {
    "id": 486985111,
    "name": "Pirate's Galley",
    "description": "An interesting place of category: Food & Drink.",
    "latitude": 36.0297635,
    "longitude": 14.2174039,
    "image_urls": [],
    "category": "Food & Drink",
    "aiGeneratedDescription": null,
    "sources": "\"[]\"",
    "website": null
  },
  {
    "id": 496330601,
    "name": "Salvina",
    "description": "An interesting place of category: Food & Drink.",
    "latitude": 36.0617697,
    "longitude": 14.2088287,
    "image_urls": [],
    "category": "Food & Drink",
    "aiGeneratedDescription": null,
    "sources": "\"[]\"",
    "website": null
  },
  {
    "id": 496330612,
    "name": "Tas-Sajf",
    "description": "An interesting place of category: Shopping.",
    "latitude": 36.0592955,
    "longitude": 14.2096121,
    "image_urls": [],
    "category": "Shopping",
    "aiGeneratedDescription": null,
    "sources": "\"[]\"",
    "website": null
  },
  {
    "id": 496330614,
    "name": "Francesco's Bar",
    "description": "An interesting place of category: Food & Drink.",
    "latitude": 36.0693786,
    "longitude": 14.2354453,
    "image_urls": [],
    "category": "Food & Drink",
    "aiGeneratedDescription": null,
    "sources": "\"[]\"",
    "website": null
  },
  {
    "id": 502152236,
    "name": "Wied il-Għasri",
    "description": "An interesting place of category: Beach.",
    "latitude": 36.0786955,
    "longitude": 14.2282266,
    "image_urls": [],
    "category": "Beach",
    "aiGeneratedDescription": null,
    "sources": "\"[]\"",
    "website": null
  },
  {
    "id": 512999017,
    "name": "Nature Spot Location",
    "description": "An interesting place of category: Nature Spot.",
    "latitude": 36.056681,
    "longitude": 14.2091757,
    "image_urls": [],
    "category": "Nature Spot",
    "aiGeneratedDescription": null,
    "sources": "\"[]\"",
    "website": null
  },
  {
    "id": 518288040,
    "name": "Historical Building Location",
    "description": "An interesting place of category: Historical Building.",
    "latitude": 36.0416935,
    "longitude": 14.2497096,
    "image_urls": [],
    "category": "Historical Building",
    "aiGeneratedDescription": null,
    "sources": "\"[]\"",
    "website": null
  },
  {
    "id": 518344696,
    "name": "Nature Spot Location",
    "description": "An interesting place of category: Nature Spot.",
    "latitude": 36.0300504,
    "longitude": 14.2864752,
    "image_urls": [],
    "category": "Nature Spot",
    "aiGeneratedDescription": null,
    "sources": "\"[]\"",
    "website": null
  },
  {
    "id": 518344716,
    "name": "Nature Spot Location",
    "description": "An interesting place of category: Nature Spot.",
    "latitude": 36.0369033,
    "longitude": 14.2540761,
    "image_urls": [],
    "category": "Nature Spot",
    "aiGeneratedDescription": null,
    "sources": "\"[]\"",
    "website": null
  },
  {
    "id": 518344717,
    "name": "Nature Spot Location",
    "description": "An interesting place of category: Nature Spot.",
    "latitude": 36.0371306,
    "longitude": 14.2547817,
    "image_urls": [],
    "category": "Nature Spot",
    "aiGeneratedDescription": null,
    "sources": "\"[]\"",
    "website": null
  },
  {
    "id": 518344742,
    "name": "Beach Location",
    "description": "An interesting place of category: Beach.",
    "latitude": 36.0134915,
    "longitude": 14.3239762,
    "image_urls": [],
    "category": "Beach",
    "aiGeneratedDescription": null,
    "sources": "\"[]\"",
    "website": null
  },
  {
    "id": 518344752,
    "name": "Beach Location",
    "description": "An interesting place of category: Beach.",
    "latitude": 36.016163,
    "longitude": 14.3244077,
    "image_urls": [],
    "category": "Beach",
    "aiGeneratedDescription": null,
    "sources": "\"[]\"",
    "website": null
  },
  {
    "id": 518456423,
    "name": "Censu Sciberras Garden",
    "description": "An interesting place of category: Nature Spot.",
    "latitude": 36.0430669,
    "longitude": 14.2291544,
    "image_urls": [],
    "category": "Nature Spot",
    "aiGeneratedDescription": null,
    "sources": "\"[]\"",
    "website": null
  },
  {
    "id": 518456464,
    "name": "It-Tempji tal-Ġgantija",
    "description": "An interesting place of category: Art & Culture.",
    "latitude": 36.0489707,
    "longitude": 14.2678466,
    "image_urls": [],
    "category": "Art & Culture",
    "aiGeneratedDescription": null,
    "sources": "\"[]\"",
    "website": null
  },
  {
    "id": 518551784,
    "name": "Nature Spot Location",
    "description": "An interesting place of category: Nature Spot.",
    "latitude": 36.0308687,
    "longitude": 14.2975378,
    "image_urls": [],
    "category": "Nature Spot",
    "aiGeneratedDescription": null,
    "sources": "\"[]\"",
    "website": null
  },
  {
    "id": 518551786,
    "name": "Nature Spot Location",
    "description": "An interesting place of category: Nature Spot.",
    "latitude": 36.030309,
    "longitude": 14.2972445,
    "image_urls": [],
    "category": "Nature Spot",
    "aiGeneratedDescription": null,
    "sources": "\"[]\"",
    "website": null
  },
  {
    "id": 538836959,
    "name": "Jeffrey's",
    "description": "An interesting place of category: Food & Drink.",
    "latitude": 36.0559007,
    "longitude": 14.2133279,
    "image_urls": [],
    "category": "Food & Drink",
    "aiGeneratedDescription": null,
    "sources": "\"[]\"",
    "website": null
  },
  {
    "id": 538836966,
    "name": "Rangers Snack Bar",
    "description": "An interesting place of category: Food & Drink.",
    "latitude": 36.0590852,
    "longitude": 14.2097505,
    "image_urls": [],
    "category": "Food & Drink",
    "aiGeneratedDescription": null,
    "sources": "\"[]\"",
    "website": null
  },
  {
    "id": 550470025,
    "name": "Plague Hospital",
    "description": "An interesting place of category: Historical Building.",
    "latitude": 36.0463449,
    "longitude": 14.2550018,
    "image_urls": [],
    "category": "Historical Building",
    "aiGeneratedDescription": null,
    "sources": "\"[]\"",
    "website": null
  },
  {
    "id": 553598358,
    "name": "Nature Spot Location",
    "description": "An interesting place of category: Nature Spot.",
    "latitude": 36.0180162,
    "longitude": 14.2600754,
    "image_urls": [],
    "category": "Nature Spot",
    "aiGeneratedDescription": null,
    "sources": "\"[]\"",
    "website": null
  },
  {
    "id": 553684878,
    "name": "Religious Walkway",
    "description": "An interesting place of category: Nature Spot.",
    "latitude": 36.0599984,
    "longitude": 14.2177626,
    "image_urls": [],
    "category": "Nature Spot",
    "aiGeneratedDescription": null,
    "sources": "\"[]\"",
    "website": null
  },
  {
    "id": 553693856,
    "name": "Taħt is-Sur",
    "description": "An interesting place of category: Nature Spot.",
    "latitude": 36.0460272,
    "longitude": 14.240989,
    "image_urls": [],
    "category": "Nature Spot",
    "aiGeneratedDescription": null,
    "sources": "\"[]\"",
    "website": null
  },
  {
    "id": 554338864,
    "name": "Ta' Mena Estate",
    "description": "An interesting place of category: Shopping.",
    "latitude": 36.0570279,
    "longitude": 14.2512037,
    "image_urls": [],
    "category": "Shopping",
    "aiGeneratedDescription": null,
    "sources": "\"[]\"",
    "website": null
  },
  {
    "id": 577033831,
    "name": "Marsilja",
    "description": "An interesting place of category: Shopping.",
    "latitude": 36.0234924,
    "longitude": 14.2438419,
    "image_urls": [],
    "category": "Shopping",
    "aiGeneratedDescription": null,
    "sources": "\"[]\"",
    "website": null
  },
  {
    "id": 577033832,
    "name": "Muscat",
    "description": "An interesting place of category: Shopping.",
    "latitude": 36.0241714,
    "longitude": 14.2437292,
    "image_urls": [],
    "category": "Shopping",
    "aiGeneratedDescription": null,
    "sources": "\"[]\"",
    "website": null
  },
  {
    "id": 577033833,
    "name": "Shopping Location",
    "description": "An interesting place of category: Shopping.",
    "latitude": 36.0237608,
    "longitude": 14.2462425,
    "image_urls": [],
    "category": "Shopping",
    "aiGeneratedDescription": null,
    "sources": "\"[]\"",
    "website": null
  },
  {
    "id": 577948702,
    "name": "Lidl",
    "description": "An interesting place of category: Shopping.",
    "latitude": 36.0410551,
    "longitude": 14.2518746,
    "image_urls": [],
    "category": "Shopping",
    "aiGeneratedDescription": null,
    "sources": "\"[]\"",
    "website": null
  },
  {
    "id": 626141664,
    "name": "Camino Hotel Beach Bar",
    "description": "An interesting place of category: Food & Drink.",
    "latitude": 36.0164226,
    "longitude": 14.3290213,
    "image_urls": [],
    "category": "Food & Drink",
    "aiGeneratedDescription": null,
    "sources": "\"[]\"",
    "website": null
  },
  {
    "id": 662847005,
    "name": "Nature Spot Location",
    "description": "An interesting place of category: Nature Spot.",
    "latitude": 36.0389049,
    "longitude": 14.2282111,
    "image_urls": [],
    "category": "Nature Spot",
    "aiGeneratedDescription": null,
    "sources": "\"[]\"",
    "website": null
  },
  {
    "id": 662847010,
    "name": "Historical Building Location",
    "description": "An interesting place of category: Historical Building.",
    "latitude": 36.0365936,
    "longitude": 14.2324024,
    "image_urls": [],
    "category": "Historical Building",
    "aiGeneratedDescription": null,
    "sources": "\"[]\"",
    "website": null
  },
  {
    "id": 663869711,
    "name": "Reqqa Point",
    "description": "entry/exit ladder",
    "latitude": 36.0820017,
    "longitude": 14.236345,
    "image_urls": [],
    "category": "Landscape",
    "aiGeneratedDescription": null,
    "sources": "\"[]\"",
    "website": null
  },
  {
    "id": 742221362,
    "name": "Nature Spot Location",
    "description": "An interesting place of category: Nature Spot.",
    "latitude": 36.0458194,
    "longitude": 14.2387525,
    "image_urls": [],
    "category": "Nature Spot",
    "aiGeneratedDescription": null,
    "sources": "\"[]\"",
    "website": null
  },
  {
    "id": 747552267,
    "name": "Knight's Wash House",
    "description": "An interesting place of category: Nature Spot.",
    "latitude": 36.0373027,
    "longitude": 14.2352663,
    "image_urls": [],
    "category": "Nature Spot",
    "aiGeneratedDescription": null,
    "sources": "\"[]\"",
    "website": null
  },
  {
    "id": 759182484,
    "name": "Shopping Location",
    "description": "An interesting place of category: Shopping.",
    "latitude": 36.0358878,
    "longitude": 14.310967,
    "image_urls": [],
    "category": "Shopping",
    "aiGeneratedDescription": null,
    "sources": "\"[]\"",
    "website": null
  },
  {
    "id": 759183319,
    "name": "Ur Choice Supermarket",
    "description": "An interesting place of category: Shopping.",
    "latitude": 36.0360246,
    "longitude": 14.3120869,
    "image_urls": [],
    "category": "Shopping",
    "aiGeneratedDescription": null,
    "sources": "\"[]\"",
    "website": null
  },
  {
    "id": 759184133,
    "name": "Shopping Location",
    "description": "An interesting place of category: Shopping.",
    "latitude": 36.0364343,
    "longitude": 14.3113961,
    "image_urls": [],
    "category": "Shopping",
    "aiGeneratedDescription": null,
    "sources": "\"[]\"",
    "website": null
  },
  {
    "id": 759187648,
    "name": "Ta' Vestru",
    "description": "An interesting place of category: Food & Drink.",
    "latitude": 36.0355581,
    "longitude": 14.3110743,
    "image_urls": [],
    "category": "Food & Drink",
    "aiGeneratedDescription": null,
    "sources": "\"[]\"",
    "website": null
  },
  {
    "id": 759188640,
    "name": "Food & Drink Location",
    "description": "An interesting place of category: Food & Drink.",
    "latitude": 36.0352371,
    "longitude": 14.3115571,
    "image_urls": [],
    "category": "Food & Drink",
    "aiGeneratedDescription": null,
    "sources": "\"[]\"",
    "website": null
  },
  {
    "id": 759189400,
    "name": "Zeppi's Pub",
    "description": "An interesting place of category: Food & Drink.",
    "latitude": 36.0353564,
    "longitude": 14.3116625,
    "image_urls": [],
    "category": "Food & Drink",
    "aiGeneratedDescription": null,
    "sources": "\"[]\"",
    "website": null
  },
  {
    "id": 759192617,
    "name": "Xerri il-Bukkett",
    "description": "An interesting place of category: Food & Drink.",
    "latitude": 36.0307862,
    "longitude": 14.3087461,
    "image_urls": [],
    "category": "Food & Drink",
    "aiGeneratedDescription": null,
    "sources": "\"[]\"",
    "website": null
  },
  {
    "id": 759221676,
    "name": "Il Wileġ Restaurant",
    "description": "An interesting place of category: Food & Drink.",
    "latitude": 36.0396552,
    "longitude": 14.3121071,
    "image_urls": [],
    "category": "Food & Drink",
    "aiGeneratedDescription": null,
    "sources": "\"[]\"",
    "website": null
  },
  {
    "id": 759231967,
    "name": "Blue Waters Dive Cove",
    "description": "An interesting place of category: Shopping.",
    "latitude": 36.0352031,
    "longitude": 14.3199378,
    "image_urls": [],
    "category": "Shopping",
    "aiGeneratedDescription": null,
    "sources": "\"[]\"",
    "website": null
  },
  {
    "id": 776083551,
    "name": "Public Toilets",
    "description": "An interesting place of category: Public Toilet.",
    "latitude": 36.0608936,
    "longitude": 14.2826677,
    "image_urls": [],
    "category": "Public Toilet",
    "aiGeneratedDescription": null,
    "sources": "\"[]\"",
    "website": null
  },
  {
    "id": 778020833,
    "name": "Landscape Location",
    "description": "An interesting place of category: Landscape.",
    "latitude": 36.0235355,
    "longitude": 14.2637464,
    "image_urls": [],
    "category": "Landscape",
    "aiGeneratedDescription": null,
    "sources": "\"[]\"",
    "website": null
  },
  {
    "id": 778020834,
    "name": "Landscape Location",
    "description": "An interesting place of category: Landscape.",
    "latitude": 36.0232056,
    "longitude": 14.2633053,
    "image_urls": [],
    "category": "Landscape",
    "aiGeneratedDescription": null,
    "sources": "\"[]\"",
    "website": null
  },
  {
    "id": 822880522,
    "name": "Best Saver",
    "description": "An interesting place of category: Shopping.",
    "latitude": 36.034182,
    "longitude": 14.2544815,
    "image_urls": [],
    "category": "Shopping",
    "aiGeneratedDescription": null,
    "sources": "\"[]\"",
    "website": null
  },
  {
    "id": 822880526,
    "name": "Safeway",
    "description": "An interesting place of category: Shopping.",
    "latitude": 36.0341039,
    "longitude": 14.2548999,
    "image_urls": [],
    "category": "Shopping",
    "aiGeneratedDescription": null,
    "sources": "\"[]\"",
    "website": null
  },
  {
    "id": 822880530,
    "name": "ta xiber",
    "description": "An interesting place of category: Food & Drink.",
    "latitude": 36.0343468,
    "longitude": 14.2539127,
    "image_urls": [],
    "category": "Food & Drink",
    "aiGeneratedDescription": null,
    "sources": "\"[]\"",
    "website": null
  },
  {
    "id": 828593912,
    "name": "Maria's Bar",
    "description": "An interesting place of category: Food & Drink.",
    "latitude": 36.0244766,
    "longitude": 14.2426958,
    "image_urls": [],
    "category": "Food & Drink",
    "aiGeneratedDescription": null,
    "sources": "\"[]\"",
    "website": null
  },
  {
    "id": 828597474,
    "name": "Sannat Band Club",
    "description": "An interesting place of category: Food & Drink.",
    "latitude": 36.0268043,
    "longitude": 14.2426021,
    "image_urls": [],
    "category": "Food & Drink",
    "aiGeneratedDescription": null,
    "sources": "\"[]\"",
    "website": null
  },
  {
    "id": 894516892,
    "name": "Galea Supermarket",
    "description": "An interesting place of category: Shopping.",
    "latitude": 36.0510333,
    "longitude": 14.2677426,
    "image_urls": [],
    "category": "Shopping",
    "aiGeneratedDescription": null,
    "sources": "\"[]\"",
    "website": null
  },
  {
    "id": 910116091,
    "name": "Landscape Location",
    "description": "An interesting place of category: Landscape.",
    "latitude": 36.0579974,
    "longitude": 14.2417831,
    "image_urls": [],
    "category": "Landscape",
    "aiGeneratedDescription": null,
    "sources": "\"[]\"",
    "website": null
  },
  {
    "id": 910116092,
    "name": "Landscape Location",
    "description": "An interesting place of category: Landscape.",
    "latitude": 36.0593752,
    "longitude": 14.2412787,
    "image_urls": [],
    "category": "Landscape",
    "aiGeneratedDescription": null,
    "sources": "\"[]\"",
    "website": null
  },
  {
    "id": 910116093,
    "name": "Landscape Location",
    "description": "An interesting place of category: Landscape.",
    "latitude": 36.0578399,
    "longitude": 14.2400333,
    "image_urls": [],
    "category": "Landscape",
    "aiGeneratedDescription": null,
    "sources": "\"[]\"",
    "website": null
  },
  {
    "id": 910116095,
    "name": "Landscape Location",
    "description": "An interesting place of category: Landscape.",
    "latitude": 36.0650857,
    "longitude": 14.2469214,
    "image_urls": [],
    "category": "Landscape",
    "aiGeneratedDescription": null,
    "sources": "\"[]\"",
    "website": null
  },
  {
    "id": 910116096,
    "name": "Landscape Location",
    "description": "An interesting place of category: Landscape.",
    "latitude": 36.0664745,
    "longitude": 14.254383,
    "image_urls": [],
    "category": "Landscape",
    "aiGeneratedDescription": null,
    "sources": "\"[]\"",
    "website": null
  },
  {
    "id": 910116097,
    "name": "Landscape Location",
    "description": "An interesting place of category: Landscape.",
    "latitude": 36.0554992,
    "longitude": 14.2553857,
    "image_urls": [],
    "category": "Landscape",
    "aiGeneratedDescription": null,
    "sources": "\"[]\"",
    "website": null
  },
  {
    "id": 910116098,
    "name": "Landscape Location",
    "description": "An interesting place of category: Landscape.",
    "latitude": 36.0734748,
    "longitude": 14.2549796,
    "image_urls": [],
    "category": "Landscape",
    "aiGeneratedDescription": null,
    "sources": "\"[]\"",
    "website": null
  },
  {
    "id": 910116099,
    "name": "Landscape Location",
    "description": "An interesting place of category: Landscape.",
    "latitude": 36.0548285,
    "longitude": 14.2420082,
    "image_urls": [],
    "category": "Landscape",
    "aiGeneratedDescription": null,
    "sources": "\"[]\"",
    "website": null
  },
  {
    "id": 944832546,
    "name": "Beach Location",
    "description": "An interesting place of category: Beach.",
    "latitude": 36.0539166,
    "longitude": 14.1919177,
    "image_urls": [],
    "category": "Beach",
    "aiGeneratedDescription": null,
    "sources": "\"[]\"",
    "website": null
  },
  {
    "id": 967563856,
    "name": "Nature Spot Location",
    "description": "An interesting place of category: Nature Spot.",
    "latitude": 36.0096896,
    "longitude": 14.3357632,
    "image_urls": [],
    "category": "Nature Spot",
    "aiGeneratedDescription": null,
    "sources": "\"[]\"",
    "website": null
  },